authorID,newsamID,textCount,latitude,longitude,DisplayName,author,count
1,2565,"newengland, 2",37.8,-78.5,Abemarle,Adams,2
107,2564,"miscellanies, 1",51.667,-1.283,Abingdon,Jones-M,1
29,2564,"saratoga2, 1",51.667,-1.283,Abingdon,Cushing,1
1,2563,"newengland, 1",45,-63,Acadia,Adams,1
24,2563,"pilgrimpeep, 1",45,-63,Acadia,Cheney,1
79,2563,"aborigines, 1",45,-63,Acadia,Sigourney,1
89,2562,"changingscenes, 4",37.71861111,-75.66722222,"Acomac, Virginia",Unknown,4
1,2560,"jews, 2",41.66666667,26.56666667,Adrianople,Adams,2
32,2550,"liberty, 1",50.46361111,2.141666667,Agincourt,Defleury,1
8,2550,"miscellany, 1",50.46361111,2.141666667,Agincourt,Behn,1
81,2549,"desmond, 2",45.33333333,3,Aiquemont,Smith,2
81,2548,"desmond, 2",46.02333333,3.203055556,Aiqueperce,Smith,2
119,2547,"poeticalworks, 1",55.458,-4.629,Air,Little,1
32,2547,"divinepoems, 1",55.458,-4.629,Air,Defleury,1
79,2547,"aborigines, 1",55.458,-4.629,Air,Sigourney,1
49,2545,"memoir, 2",13.46666667,-16.58333333,Aku,Kilham,2
76,2544,"aborigine, 3",29.50638889,-82.28194444,Alachua Savanna,Sanders,3
19,2541,"william, 1",49.77138889,1.753055556,Albemarle,Cavendish,1
7,2541,"recreations, 1",49.77138889,1.753055556,Albemarle,Barker,1
42,2540,"nightbefore, 2",40,-4,Alcazar,Garnett,2
74,2537,"alabama, 2",38.69972222,-79.53277778,Alleghany,Royall,2
79,2537,"aborigines, 8",38.69972222,-79.53277778,Alleghany,Sigourney,8
89,2537,"changingscenes, 2",38.69972222,-79.53277778,Alleghany,Unknown,2
49,2536,"memoir, 2",8.484444444,-13.23444444,Allen's Town,Kilham,2
45,2535,"anjou, 2",55.41575,-1.70607,Alnwick,Holford,2
1,2533,"newengland, 2",40.52016,-74.271331,Amboy,Adams,2
61,2529,"poemsplay, 2",54.7173,-6.2055,Antrim,Nooth,2
95,2526,"humblethanksgiving, 2",36.21666667,37.16666667,Aram,Whitrow,2
11,2525,"tenthmuse, 1; several, 1",40.0184,48.4535,Araxis,Bradstreet,2
60,2522,"gleaner, 2",49.88166667,1.126944444,Argues,Murray,2
11,2519,"tenthmuse, 1; several, 1",36.21666667,37.16666667,Arpad,Bradstreet,2
41,2517,"sonnets, 2",50.85439,-0.5539,Arundel Castle,Finch-B,2
1,2515,"newengland, 1",51.1465,0.8676,Ashford,Adams,1
96,2515,"fallriver, 1",51.1465,0.8676,Ashford,Williams,1
28,2513,"poems, 1",39,35,Asia Minor,Cowley,1
73,2513,"present, 1",39,35,Asia Minor,Rowson,1
11,2512,"several, 1; tenthmuse, 1",10.25,-61.61666667,Asphaltis Lake,Bradstreet,2
19,2511,"william, 2",53.756767,-1.661639,Atherton-Moor,Cavendish,2
51,2510,"museum, 1",49.77138889,1.753055556,Aumale,Lennox,1
60,2510,"gleaner, 1",49.77138889,1.753055556,Aumale,Murray,1
44,2509,"spectator04, 1; spectator03, 1",51.50722222,-0.1275,Austin-Fryars,Haywood,2
29,2507,"letters, 2",48.85666667,2.350833333,Avenue De Neuilly,Cushing,2
44,2501,"spectator02, 2",51.50722222,-0.1275,Bagnio,Haywood,2
26,2500,"appeal, 2",-12.52,-41.69,Bahia,Child,2
26,2499,"appeal, 2",12.65,-8,Bambarra,Child,2
45,2498,"anjou, 4",55.608,-1.709,Bamborough,Holford,4
1,2494,"newengland, 1",42.375,-70.74944444,Bay Of Massachusetts,Adams,1
24,2494,"pilgrimpeep, 1",42.375,-70.74944444,Bay Of Massachusetts,Cheney,1
24,2493,"pilgrimpeep, 2",41.96666667,-70.6,Bay Of Plymouth,Cheney,2
45,2492,"anjou, 2",50.82,-1.45,Beaulieu,Holford,2
1,2491,"newengland, 1",46.81666667,-71.21666667,Beauport,Adams,1
12,2491,"emily, 1",46.81666667,-71.21666667,Beauport,Brooke,1
44,2490,"spectator02, 2",51.512,-0.12345,Bedford-Head Tavern,Haywood,2
66,2489,"poems1667, 1; poems1664, 1",55.133,-1.583,Bedlington,Philips-K,2
26,2484,"appeal, 2",6.2337,-57.543,Berbice,Child,2
13,2483,"idomen, 1",32.33333333,-64.75,Bermuda,Brooks,1
24,2483,"pilgrimpeep, 1",32.33333333,-64.75,Bermuda,Cheney,1
1,2482,"jews, 2",46.95,7.45,Bern,Adams,2
51,2481,"museum, 2",55.66905,-1.78485,Bernicia,Lennox,2
71,2480,"poetical, 1",52.35,-7.333333333,Besborough,Robinson,1
81,2480,"sonnets, 1",52.35,-7.333333333,Besborough,Smith,1
29,2478,"letters, 2",48.92611111,2.217777778,Bezon,Cushing,2
5,2477,"works2, 1",52.48305556,-1.893611111,Birmingham,Barbauld,1
81,2477,"desmond, 1",52.48305556,-1.893611111,Birmingham,Smith,1
1,2475,"newengland, 2",33.47,-81.975,Black Swamp,Adams,2
57,2474,"letters, 1",50.856,-2.1648,Blandford,Manley,1
77,2474,"advocate, 1",50.856,-2.1648,Blandford,Scott,1
24,2473,"pilgrimpeep, 2",41.16972222,-71.58,Block Island,Cheney,2
19,2472,"william, 2",53.03333333,-1.816666667,Blore,Cavendish,2
74,2470,"alabama, 2",35.76472222,-82.26527778,Blue Ridge,Royall,2
33,2469,"maryqueen, 2",54.321932,-1.948106,Bolton,Deverell,2
1,2468,"newengland, 1",40.149824,-74.707642,Bordentown,Adams,1
60,2468,"gleaner, 1",40.149824,-74.707642,Bordentown,Murray,1
5,2467,"works2, 1",46.5,32.33333333,Borysthenes,Barbauld,1
91,2467,"mental, 1",46.5,32.33333333,Borysthenes,Wakefield,1
81,2463,"whatisshe, 1",-33.99799983,151.233,Botany Bay,Smith,1
89,2463,"changingscenes, 1",-33.99799983,151.233,Botany Bay,Unknown,1
60,2462,"gleaner, 2",55.8095,-4.0948,Bothwell,Murray,2
89,2461,"witchcrafts, 2",52.9375,-0.802,Bottesford,Unknown,2
1,2460,"jews, 1",47.08444444,2.396388889,Bourges,Adams,1
14,2460,"reformation, 1",47.08444444,2.396388889,Bourges,Bullard,1
5,2459,"legacy, 1; works2, 1",51.255,-0.308611111,Box-Hill,Barbauld,2
96,2458,"fallriver, 2",41.55,-72.18333333,Bozrahville,Williams,2
19,2457,"natpix, 1; william, 1",51.21666667,4.416666667,Brabant,Cavendish,2
1,2456,"jews, 2",41.55111111,-8.428333333,Braga,Adams,2
63,2454,"apologie, 2",51.016,-4.209,Brideford,Parr-S,2
57,2453,"letters, 2",50.7336,-2.7584,Bridgport,Manley,2
28,2452,"townbefore, 1",51.3,-3.616666667,Bristol Channel,Cowley,1
5,2452,"legacy, 1",51.3,-3.616666667,Bristol Channel,Barbauld,1
163,2443,"midwifery, 2",52.388,-2.765,Bromfield,Stone,2
11,2440,"several, 1; tenthmuse, 1",32.93111111,73.73083333,Bucephalon,Bradstreet,2
26,2439,"appeal, 2",13.46388889,-14.11472222,Bunda,Child,2
107,2438,"miscellanies, 2",51.5106,-0.1409,Burlington-Street,Jones-M,2
11,2435,"several, 1; tenthmuse, 3",36.53333333,-6.283333333,Cadiz,Bradstreet,4
42,2435,"nightbefore, 2",36.53333333,-6.283333333,Cadiz,Garnett,2
13,2434,"zophiel1834, 2",23.05111111,-81.57527778,Cafetal San Patricio,Brooks,2
74,2433,"alabama, 2",32.31694444,-87.10138889,Cahawba,Royall,2
1,2432,"jews, 2",34.8,114.3,Cai-Fong-Fou,Adams,2
6,2427,"poems, 2",51.4736,-0.0912,Camberwell,Barber,2
1,2420,"newengland, 2",46.16666667,-60.75,Cape-Breton,Adams,2
60,2419,"gleaner, 2",19.76,-72.2,Cape Francois,Murray,2
66,2417,"poems1667, 1; poems1664, 1",51.96666667,-8.583333333,Carbury,Philips-K,2
114,2415,"urania, 2",46.761,13.819,Carinthia,Wroth,2
89,2414,"changingscenes, 2",51.22277778,6.771111111,Carlstadt,Unknown,2
11,2413,"several, 1; tenthmuse, 1",30.2907,57.0679,Carmania,Bradstreet,2
11,2411,"several, 1; tenthmuse, 1",40.195,23.33,Cassandria,Bradstreet,2
1,2410,"jews, 2",51.31666667,9.5,Cassel,Adams,2
29,2408,"letters, 2",44.04083333,1.107777778,Castelsarasin,Cushing,2
1,2404,"newengland, 2",34.46694444,-80.88888889,Catabaw,Adams,2
91,2403,"mental, 2",41.81666667,1.466666667,Catalonia,Wakefield,2
23,2401,"essays, 1",42.22111111,-73.86638889,Catskill Mountains,Chandler,1
89,2401,"changingscenes, 3",42.22111111,-73.86638889,Catskill Mountains,Unknown,3
149,2400,"poems, 1",53.991,-7.3601,Cavan,Quigley,1
54,2400,"sgelaighe, 1",53.991,-7.3601,Cavan,Liddiard,1
19,2399,"william, 2",53.8315,-1.1309,Cawood,Cavendish,2
71,2397,"poetical, 2",45.26027778,6.900833333,Cenis,Robinson,2
114,2395,"urania, 2",38.25,20.5,Cephalonia,Wroth,2
51,2394,"museum, 2",-3.133333333,129.5,Ceram,Lennox,2
1,2390,"newengland, 1",45.4495,-73.2767,Chamblee,Adams,1
71,2390,"thoughts, 1",45.4495,-73.2767,Chamblee,Robinson,1
1,2387,"newengland, 1",42.37055556,-71.05361111,Charles River,Adams,1
24,2387,"pilgrimpeep, 1",42.37055556,-71.05361111,Charles River,Cheney,1
60,2387,"gleaner, 1",42.37055556,-71.05361111,Charles River,Murray,1
7,2387,"patchwork, 1",42.37055556,-71.05361111,Charles River,Barker,1
1,2386,"newengland, 1",51.7361,0.4798,Chelmsford,Adams,1
20,2386,"maldef, 1",51.7361,0.4798,Chelmsford,Cellier,1
67,2385,"innocent, 2",51.47916667,-0.157222222,Chelsey-Reach,Pix,2
45,2383,"anjou, 2",53.16666667,-2.583333333,Chestershire,Holford,2
116,2382,"apologie, 1",50.83652,-0.77918,Chichester,Bacon,1
81,2382,"desmond, 1",50.83652,-0.77918,Chichester,Smith,1
5,2381,"works2, 2",51.6225,0.07227,Chigwell,Barbauld,2
46,2380,"texas, 2",28.63527778,-106.0888889,Chihuahua,Holley,2
51,2378,"museum, 2",47.16777778,0.243611111,Chinon,Lennox,2
19,2377,"philosophical, 2",38.4,26.01666667,Chios,Cavendish,2
101,2374,"academia, 2",51.75,-1.254722222,Christ-Church,Danvers,2
11,2373,"tenthmuse, 1; several, 1",17.25,-62.66666667,Christophers,Bradstreet,2
112,2369,"poems, 1",53.365,-6.21,Clontarf,Owenson,1
89,2369,"changingscenes, 1",53.365,-6.21,Clontarf,Unknown,1
91,2368,"mental, 2",42.25,42.7,Colchis,Wakefield,2
89,2366,"memoir, 2",42.3,-71.8,Commonwealth,Unknown,2
112,2365,"irishharp, 2",53.78,-9.05,Connaught,Owenson,2
107,2364,"miscellanies, 2",51.44451111,-0.565369444,Cooper's Hill,Jones-M,2
1,2363,"jews, 1",55.67611111,12.56833333,Copenhagen,Adams,1
70,2363,"narrativelife, 1",55.67611111,12.56833333,Copenhagen,Prince,1
114,2362,"urania, 2",39.58333333,19.86666667,Corfu,Wroth,2
17,2360,"edoct, 1; history, 1",51.89722222,-8.47,Cork-Castle,Cary-E,2
28,2359,"belles, 1",51.5135,-0.085,Cornhill,Cowley,1
60,2359,"gleaner, 1",51.5135,-0.085,Cornhill,Murray,1
12,2358,"emily, 2",47.4,-70.38333333,Coudre,Brooke,2
25,2357,"just, 1",52.40805556,-1.510555556,Coventry,Chidley,1
43,2357,"romance, 1",52.40805556,-1.510555556,Coventry,Green,1
12,2356,"emily, 1",50.7595,-1.3002,Cowes,Brooke,1
49,2356,"memoir, 1",50.7595,-1.3002,Cowes,Kilham,1
163,2355,"midwifery, 2",51.0229,-3.0377,Creech,Stone,2
8,2354,"miscellany, 2",45.13333333,10.03333333,Cremona,Behn,2
1,2353,"jews, 2",45.3,34.4,Crimea,Adams,2
70,2352,"narrativelife, 2",60,29.76666667,Cronstradt,Prince,2
89,2351,"brideling, 2",51.5163,-0.08145,Crowne Alley,Unknown,2
44,2350,"spectator04, 1; spectator01, 1",51.50527778,-0.113888889,Cupers,Haywood,2
18,2349,"doom, 2",18.53,31.84,Cush,Cary-M,2
7,2348,"lining, 2",51.5087,-0.082388889,Custom-House,Barker,2
1,2347,"jews, 1",45.7,26.5,Dacia,Adams,1
79,2347,"aborigines, 1",45.7,26.5,Dacia,Sigourney,1
1,2346,"newengland, 2",41.40222222,-73.47111111,Danbury,Adams,2
71,2345,"poetical, 1",45.2175,29.76138889,Danube,Robinson,1
79,2345,"aborigines, 1",45.2175,29.76138889,Danube,Sigourney,1
125,2344,"poems, 1",51.2226,1.4006,Deal,Carter,1
49,2344,"memoir, 1",51.2226,1.4006,Deal,Kilham,1
89,2343,"changingscenes, 2",41,-77.5,Deits,Unknown,2
13,2341,"zophiel1834, 1; zophiel1825, 1",38.4823,22.5013,Delphi,Brooks,2
14,2341,"reformation, 1",38.4823,22.5013,Delphi,Bullard,1
85,2341,"poems, 1",38.4823,22.5013,Delphi,Tollet,1
26,2340,"appeal, 2",6.8121,-58.1701,Demerara,Child,2
107,2339,"miscellanies, 2",51.5,-0.45,Denham Court,Jones-M,2
12,2338,"emily, 2",46.65,-71.93333333,Des Chambeaux,Brooke,2
51,2333,"museum, 2",7.296388889,80.635,Digligyneur,Lennox,2
26,2332,"appeal, 2",38.90472222,-77.01638889,District Of Columbia,Child,2
74,2331,"alabama, 2",34.73,-86.585,Ditto's Landing,Royall,2
5,2330,"legacy, 1; works2, 1",51.234,-0.3318,Dorking,Barbauld,2
5,2329,"works2, 2",45.05855556,4.72675,Doux,Barbauld,2
86,2328,"stone, 2",51.511,-0.089,Dowgate,Trapnel,2
61,2327,"poemsplay, 2",54.322,-5.703,Down,Nooth,2
44,2326,"spectator03, 1",56.462,-2.9707,Dundee,Haywood,1
51,2326,"museum, 1",56.462,-2.9707,Dundee,Lennox,1
1,2325,"newengland, 1; jews, 1",51.88603056,-0.521019444,Dunstable,Adams,2
6,2324,"poems, 2",52.91131667,-9.066316667,Dysert,Barber,2
51,2322,"museum, 2",52.1898,0.5803,East Anglia,Lennox,2
19,2321,"william, 2",53.91666667,-0.5,East-Riding,Cavendish,2
39,2318,"shortrelation, 1",55.953,-3.189,Edenburgh,Evans,1
89,2318,"witchcrafts, 1",55.953,-3.189,Edenburgh,Unknown,1
42,2314,"nightbefore, 1",53.92222222,8.722222222,Elb,Garnett,1
44,2314,"spectator02, 1",53.92222222,8.722222222,Elb,Haywood,1
1,2313,"newengland, 2",41.475,-70.76666667,Elizabeth's Isles,Adams,2
70,2312,"narrativelife, 2",56.03611111,12.60833333,Elsinore,Prince,2
1,2311,"jews, 1",52.4,0.26,Ely,Adams,1
30,2311,"blasphemous, 1",52.4,0.26,Ely,Davies,1
30,2308,"bethlehem, 1; gospel, 1",51.443,-1.106,Englefield Manor,Davies,2
28,2306,"poems, 2",54.52833333,-3.876055556,Ennersdale,Cowley,2
60,2302,"gleaner, 2",42.8337,-70.90673889,Essex Merrimack,Murray,2
1,2300,"newengland, 2",33.40728056,-80.29875,Eutaw-Springs,Adams,2
28,2297,"townbefore, 2",51.51138889,-0.151388889,Fish-Street Hill,Cowley,2
29,2296,"letters, 2",42.8944,2.9794,Fitou,Cushing,2
74,2295,"alabama, 2",33.66861111,-84.43972222,Flint,Royall,2
19,2294,"william, 2",53.20446944,-1.072761111,Forrest Of Sherwood,Cavendish,2
1,2293,"newengland, 2",40.44162778,-80.01094444,Fort-Du-Quesne,Adams,2
1,2292,"newengland, 1",41.3553,-72.082,Fort-Griswold,Adams,1
24,2292,"pilgrimpeep, 1",41.3553,-72.082,Fort-Griswold,Cheney,1
5,2291,"works2, 1",56.0645,-3.727,Forth,Barbauld,1
51,2291,"museum, 1",56.0645,-3.727,Forth,Lennox,1
1,2290,"newengland, 2",43.8775,-69.52472222,Fort Pemaquid,Adams,2
5,2287,"poems, 1; works1, 1",51.2279,-2.3215,Frome,Barbauld,2
1,2286,"newengland, 2",44.23333333,-76.47861111,Frontenac,Adams,2
81,2285,"beachy, 1; conversations, 1",-54.362,-67.638,Fuego,Smith,2
1,2283,"jews, 2",41.02277778,28.97361111,Galata,Adams,2
104,2277,"song, 2",31.859,34.919,Gazara,Francis,2
11,2276,"several, 1; tenthmuse, 1",25.30541111,60.64108056,Gedrosia,Bradstreet,2
5,2275,"works2, 1",47.2417,5.2239,Genlis,Barbauld,1
61,2275,"poemsplay, 1",47.2417,5.2239,Genlis,Nooth,1
6,2274,"poems, 2",50.34677778,13.42866667,Germania,Barber,2
104,2273,"song, 2",31.859,34.919,Gezer,Francis,2
81,2270,"manor, 2",56.594,-4.303,Glenlyon,Smith,2
1,2269,"newengland, 2",37.27,-76.49861111,Glocester-Point,Adams,2
139,2268,"poems, 2",59.21777778,10.93083333,Glomins,Campbell,2
1,2267,"jews, 1",15.5,73.83,Goa,Adams,1
40,2267,"muliebris, 1",15.5,73.83,Goa,Evelyn,1
89,2266,"witchcrafts, 2",52.58333333,-0.883333333,Goadby,Unknown,2
28,2265,"belles, 1",17.38,78.4,Golconda,Cowley,1
75,2265,"hastiniad, 1",17.38,78.4,Golconda,Ryves,1
23,2264,"essays, 1",5.55,-0.2167,Gold Coast,Chandler,1
26,2264,"appeal, 1",5.55,-0.2167,Gold Coast,Child,1
21,2263,"platlady, 1",51.51166667,-0.137222222,Golden-Square,Centlivre,1
44,2263,"spectator03, 1",51.51166667,-0.137222222,Golden-Square,Haywood,1
19,2262,"natpix, 2",51.51567222,-0.095894444,Goldsmiths-Hall,Cavendish,2
46,2260,"texas, 2",28.66666667,-97.4,Goliad,Holley,2
11,2258,"tenthmuse, 1; several, 1",39.655,31.99416667,Gordium,Bradstreet,2
1,2257,"newengland, 2",43.16333333,-70.64861111,Gorgiana,Adams,2
1,2256,"jews, 2",51.53388889,9.935555556,Gottingen,Adams,2
89,2255,"changingscenes, 2",40.8,-73.3,Gowawnes,Unknown,2
104,2254,"miscpoems, 1",37.96666667,23.71666667,Graecia,Francis,1
42,2254,"nightbefore, 1",37.96666667,23.71666667,Graecia,Garnett,1
42,2253,"nightbefore, 2",37.17805556,-3.600833333,Granada,Garnett,2
74,2252,"alabama, 1",30.26138889,120.2238889,Grand Canal,Royall,1
89,2252,"changingscenes, 1",30.26138889,120.2238889,Grand Canal,Unknown,1
45,2247,"gresford, 2",53.087,-2.966,Gresford's Vale,Holford,2
50,2245,"poems2, 1",51.52027778,-0.090833333,Grub-Street,Leapor,1
71,2245,"poetical, 1",51.52027778,-0.090833333,Grub-Street,Robinson,1
38,2244,"alcon, 2",36.78333333,-6.35,Guadalquiver,Erskine,2
114,2241,"urania, 2",38.25,21.25,Gulfe Of Lepanto,Wroth,2
70,2240,"westindies, 1; narrativelife, 1",11.5,-71,Gulf Of Venezuela,Prince,2
24,2239,"pilgrimpeep, 2",42.00517222,-70.59951667,Gurnet,Cheney,2
89,2237,"changingscenes, 2",40.85370278,-74.82487778,Hacketstown,Unknown,2
1,2236,"newengland, 2",42.34166667,-72.58888889,Hadley,Adams,2
11,2235,"tenthmuse, 1; several, 1",37.03777778,27.42416667,Hallicarnassus,Bradstreet,2
17,2234,"mariam, 1",51.5406,0.0017,Ham,Cary-E,1
5,2234,"works2, 1",51.5406,0.0017,Ham,Barbauld,1
1,2233,"newengland, 2",51.422,-0.367,Hampton,Adams,2
74,2232,"alabama, 2",54.58,-6.03,Hannah's Town,Royall,2
46,2231,"texas, 2",40.26972222,-76.87555556,Harrisburg,Holley,2
19,2230,"william, 2",54.69,-1.21,Hartlepool,Cavendish,2
1,2229,"newengland, 1",42.37083333,-72.59861111,Hatfield,Adams,1
107,2229,"miscellanies, 1",42.37083333,-72.59861111,Hatfield,Jones-M,1
1,2228,"newengland, 2",23.13333333,-82.38333333,Havannah,Adams,2
29,2227,"letters, 2",49.49,0.1,Havre De Grace,Cushing,2
117,2224,"poems, 1",57.83333333,-7,Hebrid,Bannerman,1
79,2224,"aborigines, 1",57.83333333,-7,Hebrid,Sigourney,1
42,2223,"nightbefore, 2",40.73055556,26.035,Hebrus,Garnett,2
117,2222,"poems, 1",63.98333333,-19.7,Hecla,Bannerman,1
79,2222,"aborigines, 1",63.98333333,-19.7,Hecla,Sigourney,1
1,2221,"jews, 2",24.46666667,39.6,Hedjas,Adams,2
71,2220,"poetical, 1",40.16666667,22.48333333,Helicon,Robinson,1
94,2220,"poems, 1",40.16666667,22.48333333,Helicon,Wheatley,1
11,2218,"several, 1; tenthmuse, 1",38.58833333,26.81583333,Hemus,Bradstreet,2
107,2216,"miscellanies, 2",53.3525,-6.27,Henrietta-Street,Jones-M,2
19,2215,"william, 2",55.29860278,-2.025169444,Hepple,Cavendish,2
1,2213,"newengland, 2",50.66611111,8.591111111,Hesse Cassel,Adams,2
11,2211,"tenthmuse, 2",32.82777778,73.63888889,Hidaspis,Bradstreet,2
86,2207,"stone, 2",51.5329,-0.455,Hillington,Trapnel,2
128,2205,"antonie, 1; antonius, 1",36.5656,53.0588,Hircanie,Sidney,2
51,2204,"museum, 2",-3.638055556,128.1172222,Hitto,Lennox,2
30,2203,"wordofgod, 1",51.5172,-0.1182,Holborn Hill,Davies,1
81,2203,"manor, 1",51.5172,-0.1182,Holborn Hill,Smith,1
74,2202,"alabama, 2",35.95916667,-83.85,Holston,Royall,2
51,2201,"museum, 2",-3.574930556,128.647,Honimoa,Lennox,2
104,2200,"miscpoems, 1",51.062,-0.325,Horsham,Francis,1
81,2200,"sonnets, 1",51.062,-0.325,Horsham,Smith,1
103,2199,"poems, 2",51.1701,0.819,Hothfeild,Finch-A,2
47,2198,"amaria, 2",21.91666667,88.08333333,Hougly,Jones-A,2
54,2197,"theodore, 2",50.67063056,4.3948,Hougomont,Liddiard,2
163,2193,"midwifery, 2",51.205,-2.982,Huntspill,Stone,2
104,2192,"miscpoems, 1",37.5,14,Hybla,Francis,1
71,2192,"poetical, 1",37.5,14,Hybla,Robinson,1
13,2191,"zophiel1834, 1",36.5656,53.0588,Hyrcania,Brooks,1
150,2191,"poems, 1",36.5656,53.0588,Hyrcania,Killigrew,1
26,2189,"appeal, 1",40,-89,Illinois,Child,1
74,2189,"alabama, 1",40,-89,Illinois,Royall,1
125,2187,"poems, 2",37.9397,23.6808,Ilyssus,Carter,2
26,2185,"appeal, 1",40,-86,Indiana,Child,1
74,2185,"alabama, 1",40,-86,Indiana,Royall,1
74,2184,"alabama, 2",34.70152778,-86.94113889,Indian Creek,Royall,2
1,2182,"jews, 1",21,78,Indostan,Adams,1
28,2182,"poems, 1",21,78,Indostan,Cowley,1
51,2182,"museum, 1",21,78,Indostan,Lennox,1
75,2182,"hastiniad, 1",21,78,Indostan,Ryves,1
44,2181,"spectator03, 1; spectator04, 1",51.5125,-0.109,Inner-Temple,Haywood,2
139,2180,"poems, 2",57.4718,-4.2254,Inverness,Campbell,2
11,2179,"several, 1",52.05944444,1.155555556,Ipswich,Bradstreet,1
66,2179,"poems1667, 1",52.05944444,1.155555556,Ipswich,Philips-K,1
29,2177,"letters, 2",45.79722222,4.831666667,Isle Barbe,Cushing,2
29,2176,"letters, 2",48.85472222,2.3475,Isle De La Cite,Cushing,2
39,2175,"shortrelation, 1",54.25,-4.5,Isle Of Man,Evans,1
61,2175,"poemsplay, 1",54.25,-4.5,Isle Of Man,Nooth,1
49,2174,"memoir, 2",9.462694444,-13.79617778,Isles De Los,Kilham,2
1,2173,"jews, 2",32.64472222,51.6675,Ispahan,Adams,2
74,2170,"alabama, 2",32.29888889,-90.18472222,Jackson,Royall,2
60,2168,"gleaner, 1",36.94166667,-76.44361111,James,Murray,1
79,2168,"aborigines, 1",36.94166667,-76.44361111,James,Sigourney,1
1,2167,"jews, 1",31.88333333,34.73333333,Jamnia,Adams,1
104,2167,"song, 1",31.88333333,34.73333333,Jamnia,Francis,1
51,2166,"museum, 2",56.462,-2.9707,Jay,Lennox,2
5,2165,"works2, 1",50.92722222,11.58611111,Jena,Barbauld,1
54,2165,"theodore, 1",50.92722222,11.58611111,Jena,Liddiard,1
55,2164,"name1663, 1",31.87111111,35.44416667,Jerico,Love,1
95,2164,"humblesalutation, 1",31.87111111,35.44416667,Jerico,Whitrow,1
89,2163,"changingscenes, 2",40,-74.5,Jerseys,Unknown,2
49,2162,"memoir, 2",13.33861111,-16.3825,Jillifree,Kilham,2
29,2160,"letters, 2",47.9831,3.3978,Joigny,Cushing,2
1,2159,"jews, 2",32.83222222,35.2775,Jotaphata,Adams,2
28,2156,"theman, 2",51.5447,-0.1459,Kentish Town,Cowley,2
74,2155,"alabama, 2",38.68333333,-85.18833333,Kentucky River,Royall,2
5,2154,"poems, 1",57.81666667,-8.583333333,Kilda,Barbauld,1
53,2154,"effusions, 1",57.81666667,-8.583333333,Kilda,Lickbarrow,1
6,2153,"poems, 2",54.2,-9.2166,Killala,Barber,2
20,2152,"maldef, 2",51.49916667,-0.124722222,Kings-Bench Bar,Cellier,2
28,2151,"townbefore, 1",51.49916667,-0.124722222,King's Bench Prison,Cowley,1
30,2151,"reader, 1",51.49916667,-0.124722222,King's Bench Prison,Davies,1
1,2150,"newengland, 2",50.2833,-3.7765,King's Bridge,Adams,2
1,2148,"newengland, 1",13.45305556,-16.5775,Kingstown,Adams,1
49,2148,"memoir, 1",13.45305556,-16.5775,Kingstown,Kilham,1
90,2147,"lampvirginity, 2",32.81666667,35.03333333,Kishon,Various,2
49,2146,"memoir, 2",8.469916667,-13.19236111,Kissey,Kilham,2
1,2145,"newengland, 2",43.09305556,-70.72805556,Kittery,Adams,2
112,2144,"poems, 2",53.5,-7.5,Knocksheban,Owenson,2
49,2143,"memoir, 2",8.484444444,-13.23444444,Kongo Town,Kilham,2
48,2142,"account, 2",16.85,96.18333333,Kyoon-Oo,Judson,2
114,2140,"urania, 2",36.91666667,22.66666667,Laconia,Wroth,2
29,2138,"letters, 2",49.9133,4.6936,Lafour,Cushing,2
29,2136,"letters, 2",43.7808,6.3422,La Palud,Cushing,2
29,2134,"letters, 2",44.59,-0.04,La Reole,Cushing,2
2,2133,"epistles, 2",41.9,12.5,Latium,Aikin,2
51,2132,"museum, 2",35.88333333,14.5,La Valette,Lennox,2
44,2131,"love02, 2",47.3217,-0.9258,Le Beausse,Haywood,2
29,2130,"letters, 2",47.7425,-2.5,Le Cours,Cushing,2
4,2129,"venture, 1",51.51027778,-0.130277778,Leicester-Fields,Ariadne,1
44,2129,"spectator03, 1",51.51027778,-0.130277778,Leicester-Fields,Haywood,1
49,2128,"memoir, 2",8.402777778,-13.20219444,Leicester Mountain,Kilham,2
14,2127,"reformation, 2",51.33333333,12.38333333,Leipsic,Bullard,2
22,2126,"poems, 1",55.98,-3.17,Leith,Chalmers,1
5,2126,"legacy, 1",55.98,-3.17,Leith,Barbauld,1
49,2124,"memoir, 2",8.333333333,-13.06666667,Leopold,Kilham,2
29,2123,"letters, 2",43.7309,7.4241,Le Rocher,Cushing,2
29,2122,"letters, 2",43.5,1.333333333,Lescure,Cushing,2
51,2121,"museum, 2",-3.7,128.1666667,Leytimor,Lennox,2
5,2119,"works1, 1; poems, 1",53.35,-6.266666667,Liffy,Barbauld,2
5,2118,"poems, 1; works1, 1",44.45,8.766666667,Liguria,Barbauld,2
60,2116,"gleaner, 1",52.6835,-1.826530556,Litchfield,Murray,1
77,2116,"advocate, 1",52.6835,-1.826530556,Litchfield,Scott,1
114,2114,"urania, 2",44.47083333,34.14388889,Liuadia,Wroth,2
169,2113,"poems, 2",53.0903,-4.0517,Llanberis Pass,Roscoe,2
139,2112,"poems, 1",55.95972222,-3.159722222,Lochend,Campbell,1
22,2112,"poems, 1",55.95972222,-3.159722222,Lochend,Chalmers,1
60,2111,"gleaner, 2",56.20018889,-3.379630556,Lochlevin,Murray,2
143,2110,"eugenia01, 2",45.3167,9.5,Lodi,Sheridan,2
5,2109,"works1, 1",54.5576,-3.1378,Lodore,Barbauld,1
71,2109,"poetical, 1",54.5576,-3.1378,Lodore,Robinson,1
44,2108,"spectator02, 2",51.513,-0.1246,Long-Acre,Haywood,2
103,2107,"poems, 2",51.1858,-2.2744,Long-Leat,Finch-A,2
74,2105,"alabama, 2",38.22533333,-85.74166667,Louisville,Royall,2
14,2102,"reformation, 2",52.456,-1.2,Lutterworth,Bullard,2
81,2101,"desmond, 2",49.81444444,6.131666667,Luxembourg Gardens,Smith,2
51,2100,"museum, 2",49.81444444,6.131666667,Luxemburgh,Lennox,2
1,2098,"jews, 2",31.95194444,34.88805556,Lydda,Adams,2
1,2097,"newengland, 1",42.46666667,-70.95,Lynn,Adams,1
91,2097,"mental, 1",42.46666667,-70.95,Lynn,Wakefield,1
114,2096,"urania, 2",44.47083333,34.14388889,Lyuadia,Wroth,2
14,2095,"reformation, 1",39.61666667,2.983333333,Majorca,Bullard,1
91,2095,"mental, 1",39.61666667,2.983333333,Majorca,Wakefield,1
5,2094,"works2, 1",51.584,-2.098,Malmsbury,Barbauld,1
8,2094,"miscellany, 1",51.584,-2.098,Malmsbury,Behn,1
28,2093,"townbefore, 1",51.5167,-0.152719444,Manchester Square,Cowley,1
81,2093,"desmond, 1",51.5167,-0.152719444,Manchester Square,Smith,1
26,2092,"appeal, 1",12,3,Mandingo,Child,1
49,2092,"memoir, 1",12,3,Mandingo,Kilham,1
51,2091,"museum, 2",-3.283333333,127.55,Manipa,Lennox,2
81,2090,"desmond, 2",48.9908,1.7172,Mante,Smith,2
114,2089,"urania, 2",37.61764167,22.39286944,Mantinea,Wroth,2
114,2088,"urania, 2",37.61764167,22.39286944,Mantinia,Wroth,2
1,2087,"jews, 2",31.78333333,35.21666667,Mariamne,Adams,2
81,2086,"whatisshe, 2",51.5215,-0.15,Marybone,Smith,2
1,2081,"newengland, 2",42.1875,-71.30694444,Medfield,Adams,2
1,2079,"jews, 1",48.5406,2.66,Melun,Adams,1
29,2079,"letters, 1",48.5406,2.66,Melun,Cushing,1
14,2078,"reformation, 1",50,8.266666667,Mentz,Bullard,1
71,2078,"thoughts, 1",50,8.266666667,Mentz,Robinson,1
11,2077,"several, 1; tenthmuse, 1",16.93333333,33.72638889,Meroe,Bradstreet,2
60,2076,"gleaner, 1",42.81944444,-70.81194444,Merrimack,Murray,1
92,2076,"group, 1",42.81944444,-70.81194444,Merrimack,Warren,1
5,2075,"works1, 2",53.45,-3.033,Mersey,Barbauld,2
39,2074,"shortrelation, 2",38.18333333,15.55,Messaena,Evans,2
114,2073,"urania, 1",37.16666667,22,Meteline,Wroth,1
75,2073,"hastiniad, 1",37.16666667,22,Meteline,Ryves,1
42,2072,"nightbefore, 2",39.36666667,26.16666667,Methymna,Garnett,2
1,2071,"jews, 1",51.5,3.616666667,Middleburgh,Adams,1
44,2071,"spectator03, 1",51.5,3.616666667,Middleburgh,Haywood,1
11,2069,"tenthmuse, 1",37.53027778,27.27833333,Miletus,Bradstreet,1
5,2069,"legacy, 1",37.53027778,27.27833333,Miletus,Barbauld,1
96,2067,"fallriver, 2",42.25,-71.06666667,Milton,Williams,2
17,2066,"history, 2",51.34,0.74,Milton Upon Swale,Cary-E,2
1,2065,"newengland, 1; jews, 1",39.96666667,4.083333333,Minorca,Adams,2
114,2063,"urania, 2",44.64694444,10.92555556,Modina,Wroth,2
74,2062,"alabama, 2",31.57083333,-87.36972222,Monroe,Royall,2
29,2060,"letters, 2",48.3853,2.9508,Montereau,Cushing,2
46,2059,"texas, 2",25.66666667,-100.3,Monterrey,Holley,2
119,2057,"poeticalworks, 2",54.073,-2.87,Morcham,Little,2
139,2056,"poems, 2",38.36666667,-3.833333333,Morena,Campbell,2
89,2054,"changingscenes, 2",40.87,-74.55,Morris County,Unknown,2
117,2047,"poems, 1",63.98333333,-19.7,Mount Hecla,Bannerman,1
14,2047,"reformation, 1",63.98333333,-19.7,Mount Hecla,Bullard,1
1,2045,"newengland, 2",43.8258,-73.3817,Mount Independence,Adams,2
49,2044,"memoir, 2",53.11628333,-7.324102778,Mountmellick,Kilham,2
128,2042,"antonie, 1; antonius, 1",38.56722222,27.45472222,Mount Sipylus,Sidney,2
1,2040,"newengland, 1",38.708,-77.0861,Mount Vernon,Adams,1
60,2040,"gleaner, 1",38.708,-77.0861,Mount Vernon,Murray,1
1,2039,"newengland, 2",40.056,-74.969,Mud-Island,Adams,2
49,2038,"memoir, 2",52.25,-9,Munster,Kilham,2
89,2037,"changingscenes, 2",39.97,-81.95,Muskingum,Unknown,2
1,2033,"jews, 2",48.6936,6.1846,Nanci,Adams,2
139,2031,"poems, 2",57.48333333,-4.233333333,Nessa,Campbell,2
46,2030,"texas, 2",27.83777778,-97.48944444,Neuces River,Holley,2
81,2029,"emigrants, 1; beachy, 1",48.88,0.17,Neustria,Smith,2
1,2028,"newengland, 1",17.15,-62.58333333,Nevis,Adams,1
26,2028,"appeal, 1",17.15,-62.58333333,Nevis,Child,1
81,2027,"darcy, 2",51.5126,-0.1448,New Bond-Street,Smith,2
1,2026,"newengland, 1",40.486678,-74.444414,Brunswick,Adams,1
13,2026,"idomen, 29",40.486678,-74.444414,Brunswick,Brooks,29
89,2026,"changingscenes, 1",40.486678,-74.444414,Brunswick,Unknown,1
2,2025,"epistles, 1",-32,147,New Holland,Aikin,1
5,2025,"legacy, 1",-32,147,New Holland,Barbauld,1
49,2024,"memoir, 2",51.4988,-0.0901,Newington,Kilham,2
49,2023,"memoir, 1",-32,147,New South Wales,Kilham,1
81,2023,"whatisshe, 1",-32,147,New South Wales,Smith,1
1,2022,"newengland, 1",23,-102,New Spain,Adams,1
46,2022,"texas, 1",23,-102,New Spain,Holley,1
24,2019,"pilgrimpeep, 2",42.379,-71.035,Noddle's Island,Cheney,2
163,2018,"midwifery, 2",51.0248,-2.9638,North Curry,Stone,2
1,2015,"newengland, 2",41.09388889,-73.41972222,Norwalk,Adams,2
48,2013,"account, 2",21.9,96.05,O-Ding-Mau,Judson,2
20,2012,"maldef, 1",51.51569167,-0.101919444,Old Baily,Cellier,1
89,2012,"brideling, 1",51.51569167,-0.101919444,Old Baily,Unknown,1
19,2011,"william, 1",53.14388889,8.213888889,Oldenburg,Cavendish,1
5,2011,"works2, 1",53.14388889,8.213888889,Oldenburg,Barbauld,1
29,2009,"letters, 1",49.59388889,17.25083333,Olmutz,Cushing,1
89,2009,"changingscenes, 1",49.59388889,17.25083333,Olmutz,Unknown,1
79,2007,"aborigines, 2",50,-85,Ontario,Sigourney,2
5,2006,"works1, 1",50,-85,Ontario,Barbauld,1
59,2006,"ouabi, 1",50,-85,Ontario,Morton,1
29,2003,"letters, 2",46.73333333,6.566666667,Orbe,Cushing,2
66,2002,"poems1664, 1; poems1667, 1",51.6528,-4.9585,Orielton,Philips-K,2
1,2001,"jews, 1",26.56666667,56.25,Ormus,Adams,1
91,2001,"mental, 1",26.56666667,56.25,Ormus,Wakefield,1
51,2000,"museum, 2",6.866666667,80.7,Ouvah,Lennox,2
81,1999,"manor, 2",51.51531111,-0.142025,Oxford Street,Smith,2
11,1997,"tenthmuse, 1; several, 1",44.10833333,59.68111111,Oxus,Bradstreet,2
1,1996,"newengland, 2",43.12138889,-70.86527778,Oyster River,Adams,2
48,1994,"account, 2",21.16666667,94.86666667,Pah-Gan,Judson,2
1,1990,"jews, 1",28.66666667,-17.86666667,Palma,Adams,1
49,1990,"memoir, 1",28.66666667,-17.86666667,Palma,Kilham,1
1,1988,"jews, 2",5.852222222,-55.20388889,Paramaribo,Adams,2
14,1985,"reformation, 2",48.56666667,13.46666667,Passau,Bullard,2
46,1984,"texas, 2",28.56555556,-96.21,Passo Cavallo,Holley,2
29,1983,"letters, 1",48.85711111,2.284136111,Passy,Cushing,1
81,1983,"desmond, 1",48.85711111,2.284136111,Passy,Smith,1
30,1981,"blasphemous, 1; gospel, 1",51.5142,-0.0978,Pauls Cross,Davies,2
1,1979,"newengland, 2",40.71685,-74.03788889,Paulus Hook,Adams,2
51,1978,"museum, 1",45.18333333,9.15,Pavia,Lennox,1
73,1978,"present, 1",45.18333333,9.15,Pavia,Rowson,1
89,1977,"changingscenes, 2",40.70971944,-74.00684167,Pearl-Street,Unknown,2
113,1976,"essays, 1",39.91666667,116.3833333,Pekin,Taylor,1
28,1976,"belles, 1",39.91666667,116.3833333,Pekin,Cowley,1
1,1975,"jews, 2",40.75466944,22.52105,Pella,Adams,2
5,1973,"works2, 2",43.4606,3.4236,Pesenas,Barbauld,2
5,1971,"works1, 1",42.15,41.6667,Phasis',Barbauld,1
72,1971,"poems, 1",42.15,41.6667,Phasis',Rowe,1
128,1970,"antonius, 1",41.01305556,24.28638889,Philippi,Sidney,1
28,1970,"bold, 1",41.01305556,24.28638889,Philippi,Cowley,1
11,1969,"tenthmuse, 1",34.12361111,35.65111111,Phoenicia,Bradstreet,1
128,1969,"antonie, 1",34.12361111,35.65111111,Phoenicia,Sidney,1
71,1969,"poetical, 1",34.12361111,35.65111111,Phoenicia,Robinson,1
85,1969,"poems, 1",34.12361111,35.65111111,Phoenicia,Tollet,1
103,1966,"poems, 2",51.1803,0.9547,Pickersdane,Finch-A,2
100,1961,"essays, 1",42.36527779,-71.65777779,Pisgah,Chudleigh,1
100,1961,"essays, 1",42.36527778,-71.65777778,Pisgah,Chudleigh,1
103,1961,"poems, 1",42.36527779,-71.65777779,Pisgah,Finch-A,1
103,1961,"poems, 1",42.36527778,-71.65777778,Pisgah,Finch-A,1
24,1961,"pilgrimpeep, 1",42.36527778,-71.65777778,Pisgah,Cheney,1
24,1961,"pilgrimpeep, 1",42.36527779,-71.65777779,Pisgah,Cheney,1
79,1961,"aborigines, 1",42.36527779,-71.65777779,Pisgah,Sigourney,1
79,1961,"aborigines, 1",42.36527778,-71.65777778,Pisgah,Sigourney,1
28,1959,"pitcairne, 1; poems, 1",56.4264,-3.5178,Pitcairne Green,Cowley,2
29,1958,"letters, 2",48.8048,2.1203,Place D'Armes,Cushing,2
29,1957,"letters, 2",48.85653889,2.342427778,Place Dauphine,Cushing,2
29,1956,"letters, 2",48.85666667,2.351388889,Place De Greve,Cushing,2
29,1955,"letters, 2",48.85313889,2.369111111,Place De La Bastille,Cushing,2
29,1954,"letters, 2",44.8415,-0.57,Place De La Bourse,Cushing,2
29,1953,"letters, 2",48.86583333,2.341111111,Place Des Victoires,Cushing,2
29,1952,"letters, 2",44.84513889,-0.57825,Place De Tourny,Cushing,2
29,1951,"letters, 2",48.85763889,2.347361111,Place Du Chatelet,Cushing,2
29,1949,"letters, 2",48.86333333,2.336944444,Place Du Palais Royal,Cushing,2
29,1948,"letters, 2",47.21305556,-1.562222222,Place Gralin,Cushing,2
104,1947,"miscpoems, 1",52.4675,-3.7828,Plinlimmon,Francis,1
2,1947,"epistles, 1",52.4675,-3.7828,Plinlimmon,Aikin,1
24,1946,"pilgrimpeep, 2",41.845,-70.7387,Plymouth Colony,Cheney,2
29,1945,"letters, 2",45.5811,-0.5469,Pons,Cushing,2
17,1944,"history, 2",53.691,-1.312,Pontefret,Cary-E,2
49,1943,"memoir, 2",53.16,-7.19,Port Arlington,Kilham,2
49,1941,"memoir, 2",8.484444444,-13.23444444,Portuguese Town,Kilham,2
79,1940,"aborigines, 1",37.99916667,-76.24972222,Potomac,Sigourney,1
89,1940,"changingscenes, 1",37.99916667,-76.24972222,Potomac,Unknown,1
20,1939,"maldef, 2",51.52194444,-0.119722222,Powis-House,Cellier,2
11,1938,"tenthmuse, 1",40.68666667,28.31861111,Propontis,Bradstreet,1
85,1938,"poems, 1",40.68666667,28.31861111,Propontis,Tollet,1
1,1936,"newengland, 1",41.7,-71.5,Providence Plantation,Adams,1
24,1936,"pilgrimpeep, 3",41.7,-71.5,Providence Plantation,Cheney,3
45,1934,"anjou, 2",54.961,-1.849,Prudhoe,Holford,2
7,1933,"love, 1",51.4649,-0.2211,Putney,Barker,1
95,1933,"toking, 1",51.4649,-0.2211,Putney,Whitrow,1
29,1932,"letters, 2",45.78916667,4.855833333,Quai De St. Clair,Cushing,2
13,1931,"idomen, 1",-0.233333333,-78.51666667,Quito,Brooks,1
73,1931,"present, 1",-0.233333333,-78.51666667,Quito,Rowson,1
20,1930,"maldef, 2",51.5137,-0.1111,Rainbow-Coffee-House,Cellier,2
48,1928,"account, 2",16.46666667,96.33333333,Rangoon River,Judson,2
1,1927,"jews, 1",49.01666667,12.08333333,Ratisbon,Adams,1
14,1927,"reformation, 1",49.01666667,12.08333333,Ratisbon,Bullard,1
1,1926,"newengland, 1",51.45416667,-0.973055556,Reading,Adams,1
81,1926,"darcy, 1",51.45416667,-0.973055556,Reading,Smith,1
1,1925,"newengland, 2",40.34869722,-74.06647222,Red Bank,Adams,2
107,1921,"miscellanies, 2",51.46166667,-0.306944444,Richmond-Green,Jones-M,2
24,1919,"pilgrimpeep, 2",42.37055556,-71.05361111,River Charles,Cheney,2
1,1918,"newengland, 1",39.42027778,-75.51972222,River Delaware,Adams,1
89,1918,"changingscenes, 1",39.42027778,-75.51972222,River Delaware,Unknown,1
1,1917,"newengland, 2",43.05611111,-70.70305556,River Piscataqua,Adams,2
1,1916,"newengland, 2",32.03777778,-80.85,River Savannah,Adams,2
29,1914,"letters, 2",43.95277778,4.807722222,Rocher,Cushing,2
4,1911,"venture, 2",51.50166667,-0.131944444,Rosamond's Pond,Ariadne,2
49,1910,"memoir, 2",53.75,-8.25,Roscommon,Kilham,2
66,1910,"poems1667, 1; pompey, 1",53.75,-8.25,Roscommon,Philips-K,2
51,1906,"museum, 2",48.8667,2.4833,Rosny,Lennox,2
29,1905,"letters, 2",48.6833,2.9667,Rozoy,Cushing,2
29,1904,"letters, 2",48.87086111,2.36925,Rue D'Aix,Cushing,2
29,1903,"letters, 2",48.86577778,2.327694444,Rue De Castiglioni,Cushing,2
29,1902,"letters, 2",44.84513889,-0.57825,Rue De Chapeau Rouge,Cushing,2
29,1901,"letters, 2",48.86786111,2.322888889,Rue Royale,Cushing,2
51,1900,"museum, 1",52.65,-0.633333333,Rutlandshire,Lennox,1
89,1900,"witchcrafts, 1",52.65,-0.633333333,Rutlandshire,Unknown,1
104,1899,"miscpoems, 2",54.44694444,-2.996388889,Rydall,Francis,2
1,1898,"newengland, 1",50.95,0.73,Rye,Adams,1
7,1898,"lining, 1",50.95,0.73,Rye,Barker,1
51,1896,"museum, 2",48.89805556,2.096388889,Saint Germain,Lennox,2
28,1895,"townbefore, 2",51.50694444,-0.139722222,Saint James's Street,Cowley,2
29,1893,"letters, 2",43.79,4.8325,Saint Remy,Cushing,2
11,1892,"several, 1; tenthmuse, 1",37.93333333,23.5,Salamis,Bradstreet,2
5,1891,"works2, 2",46.09416667,6.140277778,Saleve,Barbauld,2
1,1889,"jews, 2",15.34833333,44.20638889,Sana,Adams,2
46,1888,"texas, 2",29.05216667,-95.66894444,San Bernard,Holley,2
51,1887,"museum, 2",51.27471944,1.338880556,Sandwich,Lennox,2
1,1886,"newengland, 2",41.42,-73.28194444,Sandy- Hook,Adams,2
46,1885,"texas, 2",29.54694444,-94.94805556,San Jacinto Rivers,Holley,2
13,1884,"zophiel1834, 2",22.95572222,-81.41722222,San Patricio,Brooks,2
51,1882,"museum, 2",41.65,-0.883333333,Saragossa,Lennox,2
1,1880,"newengland, 1",51.09255,-1.8075,Sarum,Adams,1
20,1880,"maldef, 1",51.09255,-1.8075,Sarum,Cellier,1
89,1879,"changingscenes, 2",40.93,-73.10194444,Satawket,Unknown,2
48,1878,"account, 2",21.51416667,87.88072222,Saugar,Judson,2
76,1877,"aborigine, 2",32.03777778,-80.85,Savanna River,Sanders,2
22,1875,"poems, 2",60.8275,-0.841111111,Saxaford,Chalmers,2
22,1873,"poems, 1",65.52813889,16.35247222,Scandinavia,Chalmers,1
61,1873,"poemsplay, 1",65.52813889,16.35247222,Scandinavia,Nooth,1
71,1873,"poetical, 1",65.52813889,16.35247222,Scandinavia,Robinson,1
81,1873,"beachy, 1",65.52813889,16.35247222,Scandinavia,Smith,1
139,1872,"poems, 2",60.825,-0.791,Scaw,Campbell,2
1,1871,"jews, 2",29.61666667,52.53333333,Schiras,Adams,2
56,1870,"essays, 2",49.43583333,8.809444444,Schonaugia,Makin,2
89,1869,"changingscenes, 2",40.82926667,-74.79349722,Schooley's Mountain,Unknown,2
51,1868,"museum, 2",56.418,-3.404,Scone,Lennox,2
135,1865,"loving, 1",30.1843,35.3166,Seir,Fell,1
90,1865,"lampvirginity, 1",30.1843,35.3166,Seir,Various,1
19,1864,"william, 2",53.78178889,-1.070308333,Selby,Cavendish,2
1,1859,"newengland, 2",41.71813889,-71.37222222,Shawomet,Adams,2
79,1858,"aborigines, 1",39.32260278,-77.72776944,Shenandoah,Sigourney,1
89,1858,"changingscenes, 1",39.32260278,-77.72776944,Shenandoah,Unknown,1
35,1856,"french, 2",51.50694444,-0.139722222,S.Iames His Streete,Dowriche,2
2,1855,"epistles, 1",43.31861111,11.33055556,Siena,Aikin,1
51,1855,"museum, 1",43.31861111,11.33055556,Siena,Lennox,1
1,1853,"jews, 1",51.6,17.2,Silesia,Adams,1
114,1853,"urania, 1",51.6,17.2,Silesia,Wroth,1
128,1852,"antonius, 1; antonie, 1",38.56722222,27.45472222,Sipylus,Sidney,2
5,1847,"works2, 1",49.3817,3.3236,Soissons,Barbauld,1
60,1847,"gleaner, 1",49.3817,3.3236,Soissons,Murray,1
41,1843,"sonnets, 2",51.4419,-1.0114,Southcote Abbey,Finch-B,2
81,1842,"conversations, 1; sonnets, 1",50.91666667,-0.5,South Downs,Smith,2
21,1838,"platlady, 2",51.13333333,4.566666667,Spanish-Netherlands,Centlivre,2
13,1836,"zophiel1834, 1",38.86388889,22.57638889,Sperchius,Brooks,1
72,1836,"poems, 1",38.86388889,22.57638889,Sperchius,Rowe,1
139,1834,"poems, 1",78.75,16,Spitzbergen,Campbell,1
91,1834,"mental, 1",78.75,16,Spitzbergen,Wakefield,1
89,1833,"changingscenes, 2",40.70861111,-74.92222222,Spruce Run,Unknown,2
1,1832,"newengland, 2",43.06194444,-70.90694444,Squamscot Falls,Adams,2
114,1831,"urania, 2",39.91666667,25.25,Stalamina,Wroth,2
114,1830,"urania, 2",39.91666667,25.25,Stalamine,Wroth,2
30,1829,"appearance, 1",51.755,-0.336,St. Albons,Davies,1
45,1829,"anjou, 1",51.755,-0.336,St. Albons,Holford,1
70,1828,"narrativelife, 1; westindies, 1",18.2,-77.467,"St. Anne Harbor, Jamaica",Prince,2
1,1827,"newengland, 2",29.89472222,-81.31444444,St. Augustine,Adams,2
5,1826,"legacy, 1",48.8008,2.0633,St. Cyr,Barbauld,1
71,1826,"poetical, 1",48.8008,2.0633,St. Cyr,Robinson,1
19,1824,"william, 1",50.396,-4.31,St. Germain,Cavendish,1
29,1824,"letters, 1",50.396,-4.31,St. Germain,Cushing,1
70,1822,"westindies, 1; narrativelife, 1",17.99587778,-76.95510833,St. Jago,Prince,2
54,1820,"theodore, 2",50.69083333,4.406111111,St. Jean,Liddiard,2
81,1818,"manor, 2",48.6481,-2.0075,St. Malo,Smith,2
15,1817,"case, 2",51.27666667,1.074166667,St.Mildreds,Carleton,2
1,1816,"newengland, 2",42.2875,-73.32083333,Stockbridge,Adams,2
104,1814,"miscpoems, 2",53,-2.183333333,Stoke,Francis,2
89,1813,"changingscenes, 2",41.365,-71.90666667,Stonington,Unknown,2
5,1812,"works1, 2",49.5508,4.9272,Stonne,Barbauld,2
107,1811,"miscellanies, 1",51.51361111,-0.098055556,St. Paul,Jones-M,1
7,1811,"lining, 1",51.51361111,-0.098055556,St. Paul,Barker,1
5,1810,"legacy, 1",41.90222222,12.45333333,St. Peter's,Barbauld,1
60,1810,"gleaner, 1",41.90222222,12.45333333,St. Peter's,Murray,1
101,1807,"academia, 2",51.75166111,-1.268502778,St. Thomas,Danvers,2
107,1806,"miscellanies, 2",51.75194444,-1.257777778,St. Toles,Jones-M,2
139,1801,"poems, 2",59.85428889,-1.275311111,Sumburghead,Campbell,2
107,1800,"miscellanies, 1",54.9061,-1.381130556,Sunderland,Jones-M,1
19,1800,"william, 1",54.9061,-1.381130556,Sunderland,Cavendish,1
104,1797,"song, 1",50.95,-0.7,Sussex Downs,Francis,1
5,1797,"legacy, 1",50.95,-0.7,Sussex Downs,Barbauld,1
104,1796,"miscpoems, 2",52.65289444,0.684286111,Swaffham,Francis,2
114,1793,"urania, 1",37.08333333,15.28333333,Syracusa,Wroth,1
56,1793,"essays, 1",37.08333333,15.28333333,Syracusa,Makin,1
66,1792,"poems1667, 1; pompey, 1",40.31972222,-1.6975,Tagus,Philips-K,2
76,1791,"aborigine, 2",30.455,-84.25333333,Tallahassee,Sanders,2
29,1790,"letters, 2",43.8058,4.6603,Tarascon,Cushing,2
66,1787,"poems1667, 1; poems1664, 1",51.6745,-4.7044,Tenby,Philips-K,2
45,1786,"anjou, 2",42.61055556,-71.23472222,Tewksbury,Holford,2
103,1785,"poems, 1",51.35,1.383333333,Thanet,Finch-A,1
6,1785,"poems, 1",51.35,1.383333333,Thanet,Barber,1
29,1784,"letters, 1",52.31666667,5.55,The Netherlands,Cushing,1
91,1784,"mental, 1",52.31666667,5.55,The Netherlands,Wakefield,1
100,1783,"essays, 1",38.80527778,22.56277778,Thermopyle,Chudleigh,1
11,1783,"tenthmuse, 1",38.80527778,22.56277778,Thermopyle,Bradstreet,1
13,1781,"idomen, 1",38.90472222,-77.01638889,The United States,Brooks,1
48,1781,"account, 1",38.90472222,-77.01638889,The United States,Judson,1
11,1778,"several, 1",51.4606,0.3582,Tilbury,Bradstreet,1
69,1778,"chaine, 1",51.4606,0.3582,Tilbury,Primrose,1
29,1773,"letters, 2",45.9411,4.775,Trevoux,Cushing,2
70,1771,"narrativelife, 1",23.43722222,0,Tropic Of Cancer,Prince,1
73,1771,"present, 1",23.43722222,0,Tropic Of Cancer,Rowson,1
49,1770,"memoir, 2",53.515,-8.851,Tuam,Kilham,2
1,1769,"jews, 2",42.06527778,-1.606666667,Tudela,Adams,2
70,1767,"westindies, 1; narrativelife, 1",21.75,-71.58333333,Turks Island,Prince,2
74,1766,"alabama, 2",33.20653889,-87.53460556,Tuscaloosa,Royall,2
67,1765,"beau, 2",52.36752778,-2.008722222,Twatling,Pix,2
44,1762,"spectator02, 2",40.845,14.25833333,Two Sicilies,Haywood,2
11,1761,"several, 2",38.43333333,39.77277778,Tygrus,Bradstreet,2
1,1759,"jews, 2",50.45,30.52333333,Ukraine,Adams,2
48,1758,"account, 2",21.9,96.05,Umerapoorah,Judson,2
46,1756,"texas, 2",40.25,-90.25,Upper Louisiana,Holley,2
22,1755,"poems, 2",60.75,-0.883333333,Vaalifield,Chalmers,2
29,1753,"letters, 1",45.38333333,5.733333333,Valentinois,Cushing,1
51,1753,"museum, 1",45.38333333,5.733333333,Valentinois,Lennox,1
14,1752,"reformation, 2",33.751,-89.681,Valley Of The Mississippi,Bullard,2
71,1750,"poetical, 2",49.7439,0.5144,Valmont,Robinson,2
44,1749,"spectator01, 1; spectator04, 1",51.48666667,-0.121833333,Vaux-Hall-Gardens,Haywood,2
104,1748,"miscpoems, 2",52.5835,1.2909,Venta Icenorum,Francis,2
1,1746,"jews, 2",48,7,Vosges,Adams,2
81,1744,"whatisshe, 2",51.45730556,-0.194861111,Wandsworth,Smith,2
134,1743,"address, 1",51.5073,-0.061,Wapping,Cooper,1
44,1743,"spectator03, 1",51.5073,-0.061,Wapping,Haywood,1
73,1742,"present, 2",51.0365,-2.0888,War Dour Castle,Rowson,2
1,1741,"jews, 2",52.23333333,21.01666667,Warsaw,Adams,2
44,1740,"recluse, 1",52.576,-1.5454,Warwickshire,Haywood,1
51,1740,"museum, 1",52.576,-1.5454,Warwickshire,Lennox,1
74,1739,"alabama, 2",36.23,-81.7,Wataga,Royall,2
49,1738,"memoir, 2",52.25666667,-7.129166667,Waterford,Kilham,2
1,1737,"newengland, 2",42.37083333,-71.18333333,Watertown,Adams,2
48,1735,"account, 2",24,-71,Western India,Judson,2
76,1732,"aborigine, 2",30.65,-88.68333333,West-Florida,Sanders,2
1,1729,"newengland, 1",40.31,-79.47,Westmoreland County,Adams,1
74,1729,"alabama, 1",40.31,-79.47,Westmoreland County,Royall,1
74,1728,"alabama, 2",41.05,-79.05,West Pennsylvania,Royall,2
74,1726,"alabama, 2",35.7,-89.2,West Tennessee,Royall,2
91,1723,"mental, 2",49.97916667,20.06388889,Wilizka,Wakefield,2
73,1722,"inquisitor, 2",53.51648333,-0.102072222,Wiltham,Rowson,2
81,1717,"manor, 2",50.81471111,-0.371386111,Worthing,Smith,2
28,1716,"poems, 2",54.75,-3,Wotobank,Cowley,2
13,1715,"idomen, 29",31.78333333,35.21666667,Salem,Brooks,29
46,1714,"texas, 2",36.92,-81.09,Wythe County,Holley,2
126,1713,"poems, 1",36.35611111,29.31861111,Xanthus,Dixon,1
72,1713,"poems, 1",36.35611111,29.31861111,Xanthus,Rowe,1
60,1712,"gleaner, 2",41.31166667,-72.92527778,Yale College,Murray,2
22,1711,"poems, 2",53.66151667,-2.809083333,Yarrow,Chalmers,2
139,1710,"poems, 2",60.62,-1.1,Yell,Campbell,2
1,1709,"jews, 2",15,48,Yemen,Adams,2
1,1708,"newengland, 2",37.24777778,-76.3825,York-River,Adams,2
157,1707,"poetical, 2",52.264,1.509,Yoxford,Candler,2
39,1705,"shortrelation, 2",37.8,20.75,Zant,Evans,2
1,1704,"jews, 1",-41.28333333,174.45,Zealand,Adams,1
44,1704,"spectator03, 1",-41.28333333,174.45,Zealand,Haywood,1
139,1701,"poems, 1",57.1526,-2.11,Aberdeen,Campbell,1
5,1701,"works2, 1",57.1526,-2.11,Aberdeen,Barbauld,1
51,1701,"museum, 1",57.1526,-2.11,Aberdeen,Lennox,1
109,1697,"fancysketch, 1",39,25,Aegean,Moise,1
11,1697,"several, 1",39,25,Aegean,Bradstreet,1
114,1697,"urania, 1",39,25,Aegean,Wroth,1
42,1697,"nightbefore, 1",39,25,Aegean,Garnett,1
1,1694,"jews, 3",47.4925,19.05138889,Ageda,Adams,3
29,1691,"letters, 3",43.29638889,5.37,Allees De Meilhan,Cushing,3
81,1690,"manor, 3",51.0907,-1.1612,Alresford,Smith,3
1,1689,"jews, 1; jews, 2",51.513,-0.107,Alsace,Adams,3
1,1689,"jews, 1; jews, 2",48.5,7.5,Alsace,Adams,3
15,1689,"case, 1",48.5,7.5,Alsace,Carleton,1
15,1689,"case, 1",51.513,-0.107,Alsace,Carleton,1
40,1689,"foppensis, 1",48.5,7.5,Alsace,Evelyn,1
40,1689,"foppensis, 1",51.513,-0.107,Alsace,Evelyn,1
5,1688,"legacy, 1",40.961612,-5.667607,Alva,Barbauld,1
91,1688,"mental, 2",40.961612,-5.667607,Alva,Wakefield,2
100,1686,"essays, 1",40.81833333,23.84,Amphipolis,Chudleigh,1
11,1686,"several, 1; tenthmuse, 1",40.81833333,23.84,Amphipolis,Bradstreet,2
104,1683,"miscpoems, 2",47.47361111,-0.554166667,Anglesey,Francis,2
51,1683,"museum, 1",47.47361111,-0.554166667,Anglesey,Lennox,1
48,1680,"account, 5",15.85527778,95.24083333,Arah-Wah-Tee,Judson,5
46,1679,"texas, 3",28.05027778,-96.99166667,Aransaso,Holley,3
48,1677,"account, 6",19.5,94,Arracan,Judson,6
17,1676,"history, 1; edoct, 1",50.5,2.5,Artois,Cary-E,2
5,1676,"works2, 1",50.5,2.5,Artois,Barbauld,1
29,1673,"letters, 3",43.64638889,0.585555556,Auch,Cushing,3
5,1671,"works2, 2",49.13333333,16.76666667,Austerlitz,Barbauld,2
54,1671,"theodore, 1",49.13333333,16.76666667,Austerlitz,Liddiard,1
104,1669,"song, 2",34.00633611,36.20732222,Balbec,Francis,2
48,1669,"account, 1",34.00633611,36.20732222,Balbec,Judson,1
91,1668,"mental, 3",54.50138889,-8.19,Ballyshannon,Wakefield,3
15,1665,"case, 1",51.6254,-0.1527,Barnet,Carleton,1
45,1665,"anjou, 1",51.6254,-0.1527,Barnet,Holford,1
81,1665,"manor, 1",51.6254,-0.1527,Barnet,Smith,1
89,1663,"changingscenes, 3",40.703717,-74.016094,Battery,Unknown,3
13,1661,"idomen, 3",23.05111111,-81.57527778,Bay Of Matanzas,Brooks,3
29,1660,"letters, 3",47.025,4.839722222,Beaune,Cushing,3
54,1659,"sgelaighe, 2",54.597,-5.93,Belfast,Liddiard,2
60,1659,"gleaner, 1",54.597,-5.93,Belfast,Murray,1
45,1655,"anjou, 3",53.845,-0.427,Beverley,Holford,3
12,1654,"emily, 3",48.35,-68.78333333,Bic,Brooke,3
74,1653,"alabama, 3",38.41611111,-82.59583333,Big Sandy River,Royall,3
28,1651,"theman, 1; townbefore, 2",51.5163,-0.08145,Bishopsgate,Cowley,3
69,1651,"chaine, 1",51.5163,-0.08145,Bishopsgate,Primrose,1
89,1651,"brideling, 1",51.5163,-0.08145,Bishopsgate,Unknown,1
85,1650,"poems, 1",51.47,0.009,Blackheath,Tollet,1
86,1650,"stone, 1",51.47,0.009,Blackheath,Trapnel,1
90,1650,"loveletters1, 1",51.47,0.009,Blackheath,Various,1
70,1649,"westindies, 1; narrativelife, 1",18.021624,-77.846949,Black River,Prince,2
89,1649,"fortunate, 1",18.021624,-77.846949,Black River,Unknown,1
29,1648,"letters, 3",45.12861111,-0.661111111,Blaye,Cushing,3
107,1647,"miscellanies, 1",48.63333333,10.63333333,Blenheim,Jones-M,1
21,1647,"platlady, 1",48.63333333,10.63333333,Blenheim,Centlivre,1
71,1647,"thoughts, 1",48.63333333,10.63333333,Blenheim,Robinson,1
24,1646,"pilgrimpeep, 3",42.20905556,-71.10230556,Blue Hills,Cheney,3
5,1645,"works1, 1",18.04666667,-76.57916667,Blue Mountain Peak,Barbauld,1
70,1645,"narrativelife, 2; westindies, 2",18.04666667,-76.57916667,Blue Mountain Peak,Prince,4
28,1644,"turkey, 1",41.11944444,29.07527778,Bosphorus,Cowley,1
5,1644,"legacy, 1",41.11944444,29.07527778,Bosphorus,Barbauld,1
72,1644,"friendship, 1",41.11944444,29.07527778,Bosphorus,Rowe,1
45,1642,"anjou, 2",52.59111111,-1.410277778,Bosworth,Holford,2
71,1642,"poetical, 6",52.59111111,-1.410277778,Bosworth,Robinson,6
19,1641,"william, 3",55.173,-1.625,Bothal,Cavendish,3
1,1640,"jews, 1",49.7955,5.068,Bouillon,Adams,1
51,1640,"museum, 2",49.7955,5.068,Bouillon,Lennox,2
29,1638,"letters, 3",46.67055556,-1.426111111,Bourbon Vendee,Cushing,3
51,1637,"museum, 3",-3.4,126.6666667,Bouro,Lennox,3
15,1634,"case, 1",51.58333333,4.783333333,Breda,Carleton,1
19,1634,"william, 1",51.58333333,4.783333333,Breda,Cavendish,1
66,1634,"poems1667, 1",51.58333333,4.783333333,Breda,Philips-K,1
89,1628,"changingscenes, 3",40.69277778,-73.99027778,Brooklyn,Unknown,3
107,1627,"miscellanies, 3",51.5129,-0.1471,Brooke-Street,Jones-M,3
28,1627,"theman, 1",51.5129,-0.1471,Brooke-Street,Cowley,1
51,1627,"museum, 1",51.5129,-0.1471,Brooke-Street,Lennox,1
46,1625,"texas, 3",29.7638,-95.0816,Buffalo Bayou,Holley,3
149,1624,"poems, 3",54.4754,-8.2838,Bundorin,Quigley,3
1,1622,"newengland, 1",54.0819,-0.1923,Burlington,Adams,1
19,1622,"william, 1",54.0819,-0.1923,Burlington,Cavendish,1
23,1622,"poetical, 1",54.0819,-0.1923,Burlington,Chandler,1
51,1620,"museum, 1",53.14,-4.27,Caernarvonshire,Lennox,1
81,1620,"whatisshe, 2",53.14,-4.27,Caernarvonshire,Smith,2
89,1619,"changingscenes, 3",42.78796667,-73.70853333,Cahoos Falls,Unknown,3
104,1618,"miscpoems, 3",52.651,1.733,Caister,Francis,3
49,1617,"memoir, 3",6.4,-10.73333333,Caldwell,Kilham,3
112,1616,"poems, 1",34.05,-118.25,California,Owenson,1
46,1616,"texas, 2",34.05,-118.25,California,Holley,2
28,1615,"poems, 1",38.63416667,0.076388889,Calpe,Cowley,1
71,1615,"poetical, 1",38.63416667,0.076388889,Calpe,Robinson,1
81,1615,"emigrants, 1",38.63416667,0.076388889,Calpe,Smith,1
104,1612,"miscpoems, 3",52.3483,0.2525,Camus,Francis,3
1,1611,"newengland, 1",46.80916667,-71.20166667,Cape-Diamond,Adams,1
12,1611,"emily, 2",46.80916667,-71.20166667,Cape-Diamond,Brooke,2
130,1610,"life, 3",38.940782,-74.903198,Cape May,Lee,3
19,1609,"william, 3",41.38333333,-3.091111111,Caracena,Cavendish,3
17,1605,"edoct, 1; history, 1",53.14,-4.27,Carnarvan,Cary-E,2
51,1605,"museum, 1",53.14,-4.27,Carnarvan,Lennox,1
81,1605,"whatisshe, 2",53.14,-4.27,Carnarvan,Smith,2
24,1602,"pilgrimpeep, 3",42.35805556,-71.06361111,Castle Island,Cheney,3
1,1601,"jews, 1",4.937222222,-52.32611111,Cayenne,Adams,1
26,1601,"appeal, 2",4.937222222,-52.32611111,Cayenne,Child,2
76,1599,"aborigine, 2",31.58222222,-84.16555556,Chehaw Villages,Sanders,2
79,1599,"aborigines, 1",31.58222222,-84.16555556,Chehaw Villages,Sigourney,1
81,1598,"whatisshe, 3",51.88333333,-2.066666667,Cheltenham,Smith,3
76,1597,"aborigine, 3",35.9,-94.96666667,Cherokee Nation,Sanders,3
89,1596,"changingscenes, 3",35.516,-89.888,Chickasaw Bluffs,Unknown,3
1,1595,"jews, 2",51.0706,-1.7416,Clarendon,Adams,2
19,1595,"william, 1",51.0706,-1.7416,Clarendon,Cavendish,1
5,1594,"legacy, 2",51.78333333,6.133333333,Cleves,Barbauld,2
60,1594,"gleaner, 1",51.78333333,6.133333333,Cleves,Murray,1
51,1591,"museum, 3",6.934444444,79.84277778,Colombo,Lennox,3
1,1588,"jews, 1",43.365,-8.41,Corunna,Adams,1
43,1588,"romance, 2",43.365,-8.41,Corunna,Green,2
74,1587,"alabama, 3",34.66845556,-87.31082222,Courtland,Royall,3
100,1586,"essays, 1",-13.525,-71.97222222,Cusco,Chudleigh,1
13,1586,"idomen, 1",-13.525,-71.97222222,Cusco,Brooks,1
73,1586,"present, 1",-13.525,-71.97222222,Cusco,Rowson,1
114,1585,"urania, 1",37.4,25.26666667,Cynthus,Wroth,1
72,1585,"poems, 1",37.4,25.26666667,Cynthus,Rowe,1
94,1585,"poems, 1",37.4,25.26666667,Cynthus,Wheatley,1
60,1584,"gleaner, 3",60.86666667,14.73333333,Dalecarlia,Murray,3
48,1582,"account, 3",17.25,95.58333333,Danooboo,Judson,3
27,1581,"esquimaux01, 2",57.1422,-2.0673,Dee,Clark,2
81,1581,"whatisshe, 1",57.1422,-2.0673,Dee,Smith,1
1,1580,"newengland, 1",52.01173611,4.359208333,Delft,Adams,1
29,1580,"letters, 2",52.01173611,4.359208333,Delft,Cushing,2
51,1579,"museum, 1",53.08666667,-3.354444444,Denbighshire,Lennox,1
66,1579,"poems1664, 1; poems1667, 1",53.08666667,-3.354444444,Denbighshire,Philips-K,2
23,1577,"poetical, 3",42.33138889,-83.04583333,Detroit,Chandler,3
45,1576,"gresford, 3",43.29972222,-2.355277778,Deva,Holford,3
7,1575,"lining, 3",49.92,1.08,Diepe,Barker,3
5,1574,"works2, 3",47.0931,5.4906,Dole,Barbauld,3
1,1573,"newengland, 3",42.33277778,-71.04611111,Dorchester Heights,Adams,3
1,1572,"jews, 1",51.1856,1.4897,Dresden,Adams,1
5,1572,"legacy, 1",51.1856,1.4897,Dresden,Barbauld,1
60,1572,"gleaner, 1",51.1856,1.4897,Dresden,Murray,1
7,1571,"lining, 3",51.515,-0.122777778,Drury,Barker,3
96,1568,"fallriver, 3",42.37361111,-71.11055556,East Cambridge,Williams,3
116,1567,"apologie, 1",51.4881,-0.6092,Eaton,Bacon,1
44,1567,"spectator02, 1",51.4881,-0.6092,Eaton,Haywood,1
81,1567,"desmond, 1",51.4881,-0.6092,Eaton,Smith,1
104,1566,"miscpoems, 3",52.86681944,1.115238889,Edgefield,Francis,3
30,1565,"gospel, 2",52.108,-1.475,Edge-Hill,Davies,2
81,1565,"manor, 1",52.108,-1.475,Edge-Hill,Smith,1
28,1564,"theman, 1",51.429,-0.548,Egham,Cowley,1
57,1564,"letters, 2",51.429,-0.548,Egham,Manley,2
32,1562,"divinepoems, 3",51.645,-0.06,Enfield,Defleury,3
128,1561,"antonie, 2; antonius, 1",37.69636111,21.56998889,Enipeus,Sidney,3
42,1560,"nightbefore, 1",37.56333333,14.27611111,Enna,Garnett,1
5,1560,"works1, 2",37.56333333,14.27611111,Enna,Barbauld,2
51,1559,"museum, 1",48.6114,1.675,Epernon,Lennox,1
73,1559,"present, 2",48.6114,1.675,Epernon,Rowson,2
22,1557,"poems, 3",55.94453056,-3.051369444,Esk,Chalmers,3
100,1555,"poems3ch, 1",44,35,Euxine,Chudleigh,1
79,1555,"aborigines, 1",44,35,Euxine,Sigourney,1
85,1555,"poems, 1",44,35,Euxine,Tollet,1
22,1554,"poems, 3",59.54166667,-1.6225,Fair Isle,Chalmers,3
103,1552,"poems, 3",51.183,0.936,Fanscomb,Finch-A,3
11,1550,"tenthmuse, 1; several, 1",64,26,Finland,Bradstreet,2
60,1550,"gleaner, 1",64,26,Finland,Murray,1
56,1549,"essays, 1",51.51393333,-0.110511111,Fleet-Street,Makin,1
7,1549,"lining, 1",51.51393333,-0.110511111,Fleet-Street,Barker,1
95,1549,"humblethanksgiving, 1",51.51393333,-0.110511111,Fleet-Street,Whitrow,1
44,1548,"spectator03, 2",50.5694,3.475,Fontenoy,Haywood,2
71,1548,"poetical, 1",50.5694,3.475,Fontenoy,Robinson,1
24,1547,"pilgrimpeep, 3",40.7042,-74.0137,Fort Amsterdam,Cheney,3
1,1546,"newengland, 3",40.8503,-73.963,Fort-Lee,Adams,3
24,1545,"pilgrimpeep, 3",42.64485,-73.75029167,Fort Orange,Cheney,3
33,1544,"maryqueen, 3",52.52455,-0.437569444,Fotheringay Castle,Deverell,3
1,1538,"newengland, 3",40.25634167,-74.32089722,Freehold,Adams,3
114,1537,"urania, 3",39,31,Frigia,Wroth,3
19,1535,"william, 5",53.4016,-0.7732,Gainsborough,Cavendish,5
46,1534,"texas, 3",29.28111111,-94.82583333,Galveston,Holley,3
51,1532,"museum, 2",51.05,3.733333333,Ghent,Lennox,2
89,1532,"changingscenes, 1",51.05,3.733333333,Ghent,Unknown,1
51,1528,"museum, 2",51.87,-2.24,Gloucestershire,Lennox,2
89,1528,"changingscenes, 1",51.87,-2.24,Gloucestershire,Unknown,1
1,1526,"jews, 3",50.79508889,-1.124236111,Gosport,Adams,3
101,1525,"academia, 1",52.86583333,-1.205,Gotham,Danvers,1
8,1525,"miscellany, 1",52.86583333,-1.205,Gotham,Behn,1
84,1525,"revenge, 1",52.86583333,-1.205,Gotham,Tattle,1
1,1520,"newengland, 3",51.2365,-0.5703,Guildford,Adams,3
114,1519,"urania, 3",45.31666667,13,Gulfe Of Venice,Wroth,3
1,1518,"jews, 3",48.82,7.79,Haguenau,Adams,3
19,1517,"william, 3",44.64777778,-63.57138889,Hallifax,Cavendish,3
107,1516,"miscellanies, 1",51.40333333,-0.3375,Hampton-Court,Jones-M,1
30,1516,"honorable, 1",51.40333333,-0.3375,Hampton-Court,Davies,1
44,1516,"spectator02, 1",51.40333333,-0.3375,Hampton-Court,Haywood,1
57,1514,"letters, 3",51.3043,-0.9054,Hartley Row,Manley,3
26,1506,"appeal, 2",21,78,Hindostan,Child,2
48,1506,"account, 1",21,78,Hindostan,Judson,1
53,1506,"effusions, 1",21,78,Hindostan,Lickbarrow,1
75,1506,"hastiniad, 1",21,78,Hindostan,Ryves,1
49,1505,"memoir, 1",53.309,-4.633,Holyhead,Kilham,1
53,1505,"effusions, 2",53.309,-4.633,Holyhead,Lickbarrow,2
7,1504,"lining, 1",31.6253,35.1453,Holy Land,Barker,1
73,1504,"present, 1",31.6253,35.1453,Holy Land,Rowson,1
81,1504,"desmond, 1",31.6253,35.1453,Holy Land,Smith,1
81,1502,"manor, 3",51.5215,-0.13725,Howland-Street,Smith,3
74,1500,"alabama, 3",34.73,-86.585,Huntsville Spring,Royall,3
126,1499,"poems, 1",37.5,14,Hybla,Dixon,1
168,1499,"mother, 1",37.5,14,Hybla,Rm,1
41,1499,"sonnets, 1",37.5,14,Hybla,Finch-B,1
11,1498,"several, 3",32.82777778,73.63888889,Hydaspes,Bradstreet,3
117,1495,"poems, 2",65,-18,Iceland,Bannerman,2
139,1495,"poems, 1",65,-18,Iceland,Campbell,1
151,1495,"worming, 1",65,-18,Iceland,Munda,1
22,1495,"poems, 1",65,-18,Iceland,Chalmers,1
91,1495,"mental, 1",65,-18,Iceland,Wakefield,1
51,1492,"museum, 3",51.35,1.383333333,Isle Of Thanet,Lennox,3
1,1488,"newengland, 3",36.94166667,-76.44361111,James River,Adams,3
1,1486,"newengland, 3",40,-74.5,Jersies,Adams,3
1,1484,"jews, 2",32.05222222,34.75305556,Joppa,Adams,2
104,1484,"song, 1",32.05222222,34.75305556,Joppa,Francis,1
13,1480,"zophiel1834, 2",54.5999,-3.1293,Keswick,Brooks,2
71,1480,"poetical, 1",54.5999,-3.1293,Keswick,Robinson,1
70,1479,"narrativelife, 3",24.55916667,-81.78403056,Key West,Prince,3
1,1478,"newengland, 2",55.0318,-1.5557,Killingworth,Adams,2
17,1478,"edoct, 1",55.0318,-1.5557,Killingworth,Cary-E,1
60,1477,"gleaner, 3",52.399,-8.575,Killmallock,Murray,3
19,1475,"william, 8",53.74433333,-0.3325,Kingstone,Cavendish,8
1,1474,"newengland, 1",43.62222222,-73.54666667,Lake George,Adams,1
29,1474,"saratoga1, 1",43.62222222,-73.54666667,Lake George,Cushing,1
76,1474,"aborigine, 1",43.62222222,-73.54666667,Lake George,Sanders,1
61,1473,"poemsplay, 3",54.851,-5.811,Larne,Nooth,3
100,1472,"poems3ch, 1",41.9,12.5,Latium,Chudleigh,1
6,1472,"poems, 1",41.9,12.5,Latium,Barber,1
99,1472,"poems, 1",41.9,12.5,Latium,Cassan,1
139,1471,"poems, 3",58.37472222,-5.016944444,Laxford,Campbell,3
139,1470,"poems, 3",58.37472222,-5.016944444,Laxford,Campbell,3
71,1469,"poetical, 2",46.43333333,6.55,Leman,Robinson,2
8,1469,"miscellany, 1",46.43333333,6.55,Leman,Behn,1
27,1467,"esquimaux01, 3",50.61472222,-3.425,Lewin Court,Clark,3
150,1466,"poems, 1",51.50805556,-0.087777778,London-Bridge,Killigrew,1
89,1466,"brideling, 2",51.50805556,-0.087777778,London-Bridge,Unknown,2
119,1464,"poeticalworks, 3",55.608,-4.329,Loudoun,Little,3
51,1463,"museum, 2",49.81444444,6.131666667,Luxembourg,Lennox,2
7,1463,"patchwork, 1",49.81444444,6.131666667,Luxembourg,Barker,1
115,1461,"first, 3",53.23271944,-0.537661111,Lyncolne,Askew,3
115,1460,"lattre, 2; first, 1",53.06666667,-0.183333333,Lyncolne Shyre,Askew,3
1,1459,"jews, 3",31.56722222,35.62416667,Machaerus,Adams,3
29,1458,"letters, 2",50.05,4.216666667,Macon,Cushing,2
76,1458,"aborigine, 1",50.05,4.216666667,Macon,Sanders,1
48,1457,"account, 2",-20,47,Madagascar,Judson,2
70,1457,"narrativelife, 1",-20,47,Madagascar,Prince,1
24,1455,"pilgrimpeep, 2",40.79027778,-73.95972222,Manhattan,Cheney,2
79,1455,"aborigines, 1",40.79027778,-73.95972222,Manhattan,Sigourney,1
1,1454,"newengland, 3",42.5,-70.85833333,Marblehead,Adams,3
115,1453,"fox, 1",55.18333333,-2.683333333,March,Askew,1
51,1453,"museum, 2",55.18333333,-2.683333333,March,Lennox,2
86,1452,"strange, 1; stone, 2",51.51027778,-0.080555556,Mark-Lane,Trapnel,3
48,1451,"account, 3",16.52083333,97.0125,Martaban,Judson,3
1,1450,"jews, 3",31.31555556,35.35388889,Masada,Adams,3
48,1449,"account, 3",16.17,81.13,Masulipatam,Judson,3
1,1446,"jews, 3",50,8.266666667,Mayence,Adams,3
96,1443,"fallriver, 3",42.99777778,-77.50444444,Mendon Mills,Williams,3
1,1441,"jews, 2",47.7,9.266666667,Mersburg,Adams,2
14,1441,"reformation, 1",47.7,9.266666667,Mersburg,Bullard,1
26,1440,"appeal, 1",41.56222222,-72.65083333,Middleton,Child,1
45,1440,"anjou, 1",41.56222222,-72.65083333,Middleton,Holford,1
81,1440,"sonnets, 1",41.56222222,-72.65083333,Middleton,Smith,1
96,1436,"fallriver, 3",41.99805556,-71.5825,Millville,Williams,3
1,1435,"newengland, 1",52.28333333,8.916666667,Minden,Adams,1
28,1435,"dupe, 1",52.28333333,8.916666667,Minden,Cowley,1
41,1435,"sonnets, 1",52.28333333,8.916666667,Minden,Finch-B,1
53,1430,"effusions, 1",53.28333333,-4.333333333,Mona,Lickbarrow,1
61,1430,"poemsplay, 1",53.28333333,-4.333333333,Mona,Nooth,1
71,1430,"poetical, 1",53.28333333,-4.333333333,Mona,Robinson,1
51,1429,"museum, 3",49.32,2.5511,Monceaux,Lennox,3
49,1428,"memoir, 3",6.313333333,-10.80138889,Monrovia,Kilham,3
1,1427,"newengland, 1",32.36166667,-86.27916667,Montgomery,Adams,1
7,1427,"patchwork, 1",32.36166667,-86.27916667,Montgomery,Barker,1
76,1427,"aborigine, 1",32.36166667,-86.27916667,Montgomery,Sanders,1
54,1426,"theodore, 3",50.68,4.412,Mont St. Jean.,Liddiard,3
107,1425,"miscellanies, 1",51.51818889,-0.088611111,Moor-Fields,Jones-M,1
44,1425,"spectator02, 1; spectator01, 1",51.51818889,-0.088611111,Moor-Fields,Haywood,2
5,1423,"works2, 3",54.16666667,-6.083333333,Morna,Barbauld,3
61,1422,"poemsplay, 3",54.16666667,-6.083333333,Morne,Nooth,3
1,1420,"newengland, 3",40.827,-73.91,Morrissania,Adams,3
1,1419,"newengland, 1",40.79656111,-74.47731944,Morristown,Adams,1
89,1419,"changingscenes, 2",40.79656111,-74.47731944,Morristown,Unknown,2
46,1415,"texas, 3",29.96888889,-93.85583333,Naches,Holley,3
46,1414,"texas, 3",31.69305556,-93.095,Nachitoches,Holley,3
1,1413,"jews, 3",33.37861111,43.71583333,Nahardea,Adams,3
1,1411,"jews, 1",25.06,-77.345,Nassau,Adams,1
165,1411,"ghost, 1",25.06,-77.345,Nassau,Faugeres,1
36,1411,"poems, 2",25.06,-77.345,Nassau,Egerton,2
60,1411,"gleaner, 1",25.06,-77.345,Nassau,Murray,1
81,1411,"desmond, 1",25.06,-77.345,Nassau,Smith,1
114,1410,"urania, 3",40.845,14.25833333,Neapolis,Wroth,3
29,1409,"letters, 3",48.8881,2.2686,Neuilly,Cushing,3
107,1408,"miscellanies, 3",51.43916667,-0.624722222,New Lodge,Jones-M,3
46,1407,"texas, 3",34,-106,New Mexico,Holley,3
26,1406,"appeal, 1",16,8,Niger,Child,1
5,1406,"legacy, 1",16,8,Niger,Barbauld,1
93,1406,"poems-tragedy, 1",16,8,Niger,West,1
76,1402,"aborigine, 3",33.32083333,-83.84416667,Oakmulge,Sanders,3
74,1401,"alabama, 2",36.98666667,-89.13055556,Ohio River,Royall,2
89,1401,"changingscenes, 1",36.98666667,-89.13055556,Ohio River,Unknown,1
44,1400,"spectator01, 1",51.51569167,-0.101919444,Old-Bailey,Haywood,1
81,1400,"desmond, 1",51.51569167,-0.101919444,Old-Bailey,Smith,1
89,1400,"fortunate, 1",51.51569167,-0.101919444,Old-Bailey,Unknown,1
139,1399,"poems, 1",59,-3.033333333,Orkney,Campbell,1
5,1399,"works1, 1; poems, 1",59,-3.033333333,Orkney,Barbauld,2
93,1398,"poems-tragedy, 3",7.187302778,134.3680083,Oroolong,West,3
30,1396,"gospel, 1",51.75,-1.28,Oxfordshire,Davies,1
51,1396,"museum, 2",51.75,-1.28,Oxfordshire,Lennox,2
46,1395,"texas, 3",28.99861111,-95.325,Oyster Creek,Holley,3
117,1394,"poems, 2",0,-160,Pacific,Bannerman,2
44,1394,"spectator04, 1",0,-160,Pacific,Haywood,1
74,1394,"alabama, 1",0,-160,Pacific,Royall,1
79,1394,"aborigines, 1",0,-160,Pacific,Sigourney,1
13,1393,"zophiel1825, 1",38.52326944,28.04277222,Pactolus,Brooks,1
26,1393,"appeal, 1",38.52326944,28.04277222,Pactolus,Child,1
72,1393,"poems, 1",38.52326944,28.04277222,Pactolus,Rowe,1
5,1392,"works2, 3",51.12615,0.257791667,Pantiles,Barbauld,3
116,1391,"apologie, 1",41.5,33.5,Paphlagonia,Bacon,1
152,1391,"arcadia, 2",41.5,33.5,Paphlagonia,Weamys,2
19,1389,"natpix, 2",51.49916667,-0.124722222,Parliament-House,Cavendish,2
7,1389,"patchwork, 1",51.49916667,-0.124722222,Parliament-House,Barker,1
30,1387,"apocalypse, 1; greatbritain, 1",37.325,26.54166667,Patmos,Davies,2
79,1387,"aborigines, 1",37.325,26.54166667,Patmos,Sigourney,1
1,1386,"newengland, 3",41.76666667,-71.45,Patuxet,Adams,3
96,1384,"fallriver, 3",41.87555556,-71.37611111,Pawtucket,Williams,3
1,1383,"jews, 3",39.91666667,116.3833333,Peking,Adams,3
11,1382,"tenthmuse, 1; several, 2",37.34972222,22.35222222,Peloponesus,Bradstreet,3
128,1381,"antonie, 1; antonius, 2",31.04166667,32.545,Pelusium,Sidney,3
23,1380,"essays, 3",41.24305556,-76.79666667,Pennsdale,Chandler,3
114,1379,"urania, 2",39.1325,27.18416667,Pergamus,Wroth,2
5,1379,"works2, 1",39.1325,27.18416667,Pergamus,Barbauld,1
28,1378,"poems, 1",29.93444444,52.89138889,Persepolis,Cowley,1
53,1378,"effusions, 1",29.93444444,52.89138889,Persepolis,Lickbarrow,1
8,1378,"miscellany, 1",29.93444444,52.89138889,Persepolis,Behn,1
1,1377,"jews, 1",26,52,Persian Gulf,Adams,1
26,1377,"appeal, 1",26,52,Persian Gulf,Child,1
91,1377,"mental, 1",26,52,Persian Gulf,Wakefield,1
43,1376,"romance, 1",51.50698056,-0.14235,Piccadilly,Green,1
62,1376,"poetical, 1",51.50698056,-0.14235,Piccadilly,Oneill,1
81,1376,"manor, 1",51.50698056,-0.14235,Piccadilly,Smith,1
11,1374,"tenthmuse, 2; several, 1",37.3,30.3,Pisidia,Bradstreet,3
29,1373,"letters, 3",48.86194444,2.332777778,Place Du Carousel,Cushing,3
29,1372,"letters, 3",48.86555556,2.321111111,Place Louis Quinze,Cushing,3
1,1371,"newengland, 2",41.69083333,-70.61666667,Pocasset,Adams,2
96,1371,"fallriver, 1",41.69083333,-70.61666667,Pocasset,Williams,1
1,1370,"jews, 3",48.93,28.69,Podolia,Adams,3
28,1369,"theman, 1",46.58,0.34,Poictiers,Cowley,1
32,1369,"liberty, 1",46.58,0.34,Poictiers,Defleury,1
81,1369,"emigrants, 1",46.58,0.34,Poictiers,Smith,1
1,1368,"jews, 1",40.75,14.48611111,Pompey,Adams,1
103,1368,"poems, 1",40.75,14.48611111,Pompey,Finch-A,1
36,1368,"female, 1",40.75,14.48611111,Pompey,Egerton,1
112,1367,"poems, 1",-19.58333333,-65.75,Potosi,Owenson,1
117,1367,"poems, 1",-19.58333333,-65.75,Potosi,Bannerman,1
5,1367,"works1, 1",-19.58333333,-65.75,Potosi,Barbauld,1
48,1366,"account, 3",18.81666667,95.21666667,Prome,Judson,3
1,1365,"newengland, 3",42.3797,-71.0964,Prospect Hill,Adams,3
1,1364,"jews, 1",32.7,20.95,Ptolemais,Adams,1
28,1364,"poems, 1",32.7,20.95,Ptolemais,Cowley,1
35,1364,"french, 1",32.7,20.95,Ptolemais,Dowriche,1
1,1363,"newengland, 3",41.31,-72.92361111,Quinnipiak,Adams,3
89,1362,"changingscenes, 3",40.50399167,-74.34941111,Raritan,Unknown,3
46,1360,"texas, 3",29.50561111,-94.86577778,Red Fish Bar,Holley,3
49,1359,"memoir, 3",8.434166667,-13.22305556,Regent,Kilham,3
26,1358,"appeal, 1",-22.90833333,-43.19638889,Rio Janeiro,Child,1
29,1358,"letters, 1",-22.90833333,-43.19638889,Rio Janeiro,Cushing,1
49,1358,"memoir, 1",-22.90833333,-43.19638889,Rio Janeiro,Kilham,1
1,1357,"newengland, 2",51.4989,0.6087,River Thames,Adams,2
48,1357,"account, 1",51.4989,0.6087,River Thames,Judson,1
19,1355,"william, 3",53.43,-1.357,Rotheram,Cavendish,3
29,1354,"letters, 3",48.87289722,2.307822222,Rue D'Artois,Cushing,3
46,1353,"texas, 3",29.98555556,-93.79055556,Sabine River,Holley,3
29,1352,"letters, 3",48.84,2.22,Saint Cloud,Cushing,3
1,1351,"jews, 1",40.96161111,-5.667605556,Salamanca,Adams,1
8,1351,"emperor, 1; miscellany, 1",40.96161111,-5.667605556,Salamanca,Behn,2
29,1350,"letters, 3",44.535,3.1625,Salces,Cushing,3
81,1349,"desmond, 3",43.6406,5.0972,Salon,Smith,3
46,1348,"texas, 3",29.41666667,-98.5,San Antonio,Holley,3
46,1347,"texas, 3",28.50722222,-96.89111111,San Antonio River,Holley,3
42,1346,"nightbefore, 3",37.39626944,-5.985583333,San Paolo,Garnett,3
89,1345,"changingscenes, 3",42.07796667,-73.95051944,Saugerchies,Unknown,3
29,1344,"letters, 3",47.26,-0.0769,Saumur,Cushing,3
74,1343,"alabama, 2",55.55,-2.840019444,Selkirk,Royall,2
79,1343,"aborigines, 1",55.55,-2.840019444,Selkirk,Sigourney,1
81,1341,"desmond, 3",51.51438889,-0.158833333,Seymour Street,Smith,3
81,1340,"manor, 3",50.834,-0.273,Shoreham,Smith,3
117,1339,"poems, 1",60,105,Siberia,Bannerman,1
126,1339,"poems, 1",60,105,Siberia,Dixon,1
53,1339,"effusions, 1",60,105,Siberia,Lickbarrow,1
104,1336,"song, 1",33.56055556,35.39805556,Sidon,Francis,1
146,1336,"meditations, 1",33.56055556,35.39805556,Sidon,Stewart,1
30,1336,"elijah, 1",33.56055556,35.39805556,Sidon,Davies,1
130,1332,"life, 3",39.95277778,-75.16361111,Snow Hill,Lee,3
107,1331,"miscellanies, 3",51.51102778,-0.117194444,Somerset- House,Jones-M,3
1,1330,"jews, 3",32.53638889,44.42083333,Sora,Adams,3
29,1329,"letters, 3",43.96666667,5,Sorgue,Cushing,3
1,1328,"newengland, 2",50.9,-1.4,South-Hampton,Adams,2
60,1328,"gleaner, 1",50.9,-1.4,South-Hampton,Murray,1
48,1327,"account, 1",-17.53333333,-149.8333333,South Sea Islands,Judson,1
81,1327,"conversations, 2",-17.53333333,-149.8333333,South Sea Islands,Smith,2
49,1325,"memoir, 2",51.5166,-0.075,Spitalfields,Kilham,2
5,1325,"works2, 1",51.5166,-0.075,Spitalfields,Barbauld,1
19,1324,"natpix, 1",51.5065,-0.1279,Spring-Garden,Cavendish,1
66,1324,"poems1667, 1; poems1664, 1",51.5065,-0.1279,Spring-Garden,Philips-K,2
157,1323,"poetical, 3",52.06241111,1.095272222,Sproughton,Candler,3
89,1322,"changingscenes, 3",41.14,-74.69,Squires' Point,Unknown,3
51,1321,"museum, 1",18.01666667,-76.9,St. Andrews,Lennox,1
60,1321,"gleaner, 1",18.01666667,-76.9,St. Andrews,Murray,1
70,1321,"westindies, 1",18.01666667,-76.9,St. Andrews,Prince,1
81,1319,"desmond, 3",48.3622,-4.1211,St. Eloy,Smith,3
1,1317,"newengland, 2",56.1172,-3.9397,Stirling,Adams,2
5,1317,"works2, 1",56.1172,-3.9397,Stirling,Barbauld,1
26,1316,"appeal, 1",13.88333333,-60.96666667,St Lucia,Child,1
43,1316,"romance, 1",13.88333333,-60.96666667,St Lucia,Green,1
89,1316,"changingscenes, 1",13.88333333,-60.96666667,St Lucia,Unknown,1
73,1315,"present, 3",36,-5.35,Straits Of Gades,Rowson,3
89,1313,"changingscenes, 3",51,0,Sussex County,Unknown,3
29,1311,"letters, 3",43.23,0.07,Tarbes,Cushing,3
5,1306,"legacy, 1",31.2,88.8,Thibet,Barbauld,1
91,1306,"mental, 2",31.2,88.8,Thibet,Wakefield,2
6,1305,"poems, 3",52.83333333,-9,Thomond,Barber,3
115,1303,"lattre, 1",38.92083333,27.84166667,Thyatira,Askew,1
25,1303,"newyeares, 1; just, 1",38.92083333,27.84166667,Thyatira,Chidley,2
1,1301,"newengland, 1",51.50805556,-0.076111111,Tower Of London,Adams,1
30,1301,"feast, 1",51.50805556,-0.076111111,Tower Of London,Davies,1
77,1301,"advocate, 1",51.50805556,-0.076111111,Tower Of London,Scott,1
74,1300,"alabama, 3",34.67151944,-87.40831111,Town Creek,Royall,3
1,1298,"jews, 3",49.75,6.633333333,Treves,Adams,3
128,1297,"antonie, 1; antonius, 2",39.9575,26.23888889,Troie,Sidney,3
1,1296,"jews, 2",45.0667,7.7,Turin,Adams,2
14,1296,"reformation, 1",45.0667,7.7,Turin,Bullard,1
44,1294,"spectator02, 3",52.08333333,4.3,United Provinces,Haywood,3
29,1293,"letters, 3",44.9333,4.8917,Valence,Cushing,3
1,1292,"jews, 2",39.46666667,-0.375,Valencia,Adams,2
28,1292,"bold, 1",39.46666667,-0.375,Valencia,Cowley,1
1,1291,"jews, 1",41.90333333,12.45333333,Vatican,Adams,1
36,1291,"poems, 1",41.90333333,12.45333333,Vatican,Egerton,1
42,1291,"nightbefore, 1",41.90333333,12.45333333,Vatican,Garnett,1
85,1288,"poems, 2",45.43333333,10.98333333,Verona,Tollet,2
9,1288,"geniad, 1",45.43333333,10.98333333,Verona,Benger,1
17,1287,"history, 1; edoct, 1",51.599,-1.125,Wallingford,Cary-E,2
51,1287,"museum, 1",51.599,-1.125,Wallingford,Lennox,1
89,1286,"witchcrafts, 2",51.6846,4.00E-04,Waltham,Unknown,2
96,1286,"fallriver, 1",51.6846,4.00E-04,Waltham,Williams,1
89,1285,"changingscenes, 3",40.76890278,-74.01542778,Weehawk,Unknown,3
49,1283,"memoir, 1; claims, 2",12,3,West Africa,Kilham,3
5,1282,"works2, 1; works1, 2",51.51333333,-0.128611111,West End,Barbauld,3
74,1281,"alabama, 3",39,-80.5,West Virginia,Royall,3
43,1280,"romance, 1",51.5165,-0.075,Whitechapel,Green,1
44,1280,"spectator02, 1",51.5165,-0.075,Whitechapel,Haywood,1
81,1280,"whatisshe, 1",51.5165,-0.075,Whitechapel,Smith,1
128,1279,"discourse, 1",51.08,-1.864,Wilton,Sidney,1
163,1279,"midwifery, 1",51.08,-1.864,Wilton,Stone,1
20,1279,"maldef, 1",51.08,-1.864,Wilton,Cellier,1
107,1278,"miscellanies, 3",51.48333333,-0.604166667,Windsor-Castle,Jones-M,3
114,1277,"urania, 3",48.53777778,9.041111111,Wirtenberg,Wroth,3
71,1276,"poetical, 1",52.47591944,-7.059030556,Woodstock,Robinson,1
96,1276,"fallriver, 2",52.47591944,-7.059030556,Woodstock,Williams,2
115,1275,"lattre, 3",51.0632,-1.308,Wynchester,Askew,3
116,1275,"apologie, 2",51.0632,-1.308,Wynchester,Bacon,2
1,1274,"jews, 3",53.9558,-1.08,York Castle,Adams,3
11,1269,"several, 3; tenthmuse, 3",52.13333333,6.2,Zutphen,Bradstreet,6
11,1269,"several, 3; tenthmuse, 3",52.13333334,6.3,Zutphen,Bradstreet,6
49,1268,"memoir, 4",53.640824,-1.336409,Ackworth,Kilham,4
11,1267,"several, 1",43,15,Adriatic,Bradstreet,1
114,1267,"urania, 1",43,15,Adriatic,Wroth,1
38,1267,"isabel, 1",43,15,Adriatic,Erskine,1
5,1267,"works1, 1",43,15,Adriatic,Barbauld,1
71,1267,"poetical, 2",43,15,Adriatic,Robinson,2
79,1267,"aborigines, 1",43,15,Adriatic,Sigourney,1
51,1266,"museum, 4",27.18,78.02,Agra,Lennox,4
14,1264,"reformation, 1",47.47361111,-0.554166667,Angers,Bullard,1
35,1264,"french, 4",47.47361111,-0.554166667,Angers,Dowriche,4
51,1264,"museum, 2",47.47361111,-0.554166667,Angers,Lennox,2
26,1263,"appeal, 4",-12.5,18.5,Angola,Child,4
122,1260,"essays, 1",43.28166667,12.58166667,Apennines,Plato,1
32,1260,"divinepoems, 1",43.28166667,12.58166667,Apennines,Defleury,1
71,1260,"poetical, 3",43.28166667,12.58166667,Apennines,Robinson,3
81,1260,"conversations, 2",43.28166667,12.58166667,Apennines,Smith,2
11,1259,"several, 1; tenthmuse, 1",41.00861111,16.51277778,Apulia,Bradstreet,2
114,1259,"urania, 4",41.00861111,16.51277778,Apulia,Wroth,4
11,1257,"tenthmuse, 2; several, 2",36.19111111,44.00916667,Arbela,Bradstreet,4
114,1256,"urania, 1",37.61666667,22.71666667,Argos,Wroth,1
42,1256,"nightbefore, 1",37.61666667,22.71666667,Argos,Garnett,1
5,1256,"legacy, 1",37.61666667,22.71666667,Argos,Barbauld,1
51,1256,"museum, 1",37.61666667,22.71666667,Argos,Lennox,1
5,1255,"poems, 1; works1, 2",43.68333333,10.28333333,Arno,Barbauld,3
51,1255,"museum, 1",43.68333333,10.28333333,Arno,Lennox,1
71,1255,"poetical, 1",43.68333333,10.28333333,Arno,Robinson,1
8,1255,"miscellany, 1",43.68333333,10.28333333,Arno,Behn,1
5,1250,"legacy, 1",-6.0425,106.1608333,Bantam,Barbauld,1
8,1250,"patient, 3",-6.0425,106.1608333,Bantam,Behn,3
1,1247,"newengland, 1",42.558,-70.88,Beverly,Adams,1
19,1247,"william, 2",42.558,-70.88,Beverly,Cavendish,2
60,1247,"gleaner, 1",42.558,-70.88,Beverly,Murray,1
1,1246,"jews, 4",31.78333333,35.21666667,Bither,Adams,4
45,1245,"anjou, 4",52.91361111,-2.424722222,Blore Heath,Holford,4
19,1244,"william, 4",53.23138889,-1.296944444,Bolsover,Cavendish,4
36,1243,"poems, 2",53.723,-6.417,Boyne,Egerton,2
6,1243,"poems, 1",53.723,-6.417,Boyne,Barber,1
72,1243,"poems, 1",53.723,-6.417,Boyne,Rowe,1
163,1241,"midwifery, 2",51.128,-2.993,Bridgewater,Stone,2
19,1241,"william, 3",51.128,-2.993,Bridgewater,Cavendish,3
2,1241,"epistles, 1",51.128,-2.993,Bridgewater,Aikin,1
60,1241,"gleaner, 1",51.128,-2.993,Bridgewater,Murray,1
104,1239,"miscpoems, 3",52.3483,0.2525,Cam,Francis,3
5,1239,"works1, 1",52.3483,0.2525,Cam,Barbauld,1
71,1239,"poetical, 1",52.3483,0.2525,Cam,Robinson,1
85,1239,"poems, 1",52.3483,0.2525,Cam,Tollet,1
103,1238,"poems, 1",28.1,-15.4,Canaries,Finch-A,1
46,1238,"texas, 1",28.1,-15.4,Canaries,Holley,1
5,1238,"works2, 1",28.1,-15.4,Canaries,Barbauld,1
51,1238,"museum, 1",28.1,-15.4,Canaries,Lennox,1
73,1238,"present, 2",28.1,-15.4,Canaries,Rowson,2
17,1237,"history, 3; edoct, 2",54.891,-2.944,Carlile,Cary-E,5
19,1237,"william, 1",54.891,-2.944,Carlile,Cavendish,1
30,1237,"blasphemous, 1",54.891,-2.944,Carlile,Davies,1
29,1236,"letters, 2",44.05583333,5.048888889,Carpentras,Cushing,2
5,1236,"works2, 2",44.05583333,5.048888889,Carpentras,Barbauld,2
107,1235,"miscellanies, 2",10.4,-75.5,Carthagena,Jones-M,2
28,1235,"moreways, 1",10.4,-75.5,Carthagena,Cowley,1
81,1235,"manor, 1",10.4,-75.5,Carthagena,Smith,1
1,1234,"newengland, 4",43.63333333,-70.04944444,Casco,Adams,4
11,1233,"several, 1",41.66666667,50.66666667,Caspian,Bradstreet,1
13,1233,"zophiel1834, 1; zophiel1825, 1",41.66666667,50.66666667,Caspian,Brooks,2
79,1233,"aborigines, 1",41.66666667,50.66666667,Caspian,Sigourney,1
89,1232,"changingscenes, 4",40.7035,-74.0168,Castle Garden,Unknown,4
1,1230,"jews, 1",49,4,Champagne,Adams,1
132,1230,"variety, 1",49,4,Champagne,Boyd,1
28,1230,"bold, 1",49,4,Champagne,Cowley,1
29,1230,"letters, 2",49,4,Champagne,Cushing,2
5,1230,"works2, 1",49,4,Champagne,Barbauld,1
5,1229,"works2, 2",49.2,2.466666667,Chantilly,Barbauld,2
81,1229,"desmond, 2",49.2,2.466666667,Chantilly,Smith,2
81,1228,"desmond, 4",45.33333333,3,Chateau D'Hauteville,Smith,4
19,1226,"natpix, 1; william, 1",53.16666667,-2.583333333,Cheshire,Cavendish,2
51,1226,"museum, 1",53.16666667,-2.583333333,Cheshire,Lennox,1
91,1226,"mental, 1",53.16666667,-2.583333333,Cheshire,Wakefield,1
26,1223,"appeal, 4",4.583333333,-74.06666667,Colombia,Child,4
1,1221,"jews, 1",47.66333333,9.176944444,Constance,Adams,1
14,1221,"reformation, 3",47.66333333,9.176944444,Constance,Bullard,3
140,1220,"salvedeus, 4",51.558,-0.708,Cooke-Ham,Lanyer,4
1,1219,"newengland, 4",42.36722222,-71.05638889,Cop's-Hill,Adams,4
28,1218,"theman, 1",50.257,1.904,Cressy,Cowley,1
32,1218,"liberty, 1",50.257,1.904,Cressy,Defleury,1
5,1218,"works2, 1",50.257,1.904,Cressy,Barbauld,1
81,1218,"emigrants, 1",50.257,1.904,Cressy,Smith,1
103,1217,"poems, 4",36.47,34.5,Cydnus,Finch-A,4
1,1216,"jews, 3",32.825,21.85805556,Cyrene,Adams,3
140,1216,"salvedeus, 1",32.825,21.85805556,Cyrene,Lanyer,1
21,1215,"platlady, 1",45.2175,29.76138889,Danube,Centlivre,1
66,1215,"pompey, 1",45.2175,29.76138889,Danube,Philips-K,1
79,1215,"aborigines, 1",45.2175,29.76138889,Danube,Sigourney,1
91,1215,"mental, 1",45.2175,29.76138889,Danube,Wakefield,1
74,1214,"alabama, 4",37.64555556,-84.76972222,Danville,Royall,4
1,1213,"newengland, 2",43.70333333,-72.28833333,Dartmouth,Adams,2
29,1213,"saratoga1, 1",43.70333333,-72.28833333,Dartmouth,Cushing,1
94,1213,"poems, 1",43.70333333,-72.28833333,Dartmouth,Wheatley,1
27,1212,"esquimaux01, 4",50.581,-3.466,Dawlish,Clark,4
1,1211,"newengland, 4",42.54444444,-72.60611111,Deerfield,Adams,4
1,1209,"newengland, 4",45.5,-69,District Of Maine,Adams,4
20,1208,"todoctor, 1",51.5122,-0.1002,Doctors Commons,Cellier,1
30,1208,"apocalypse, 1",51.5122,-0.1002,Doctors Commons,Davies,1
67,1208,"innocent, 1",51.5122,-0.1002,Doctors Commons,Pix,1
89,1208,"changingscenes, 1",51.5122,-0.1002,Doctors Commons,Unknown,1
15,1206,"case, 1",51.1856,1.4897,Downs,Carleton,1
49,1206,"memoir, 2",51.1856,1.4897,Downs,Kilham,2
81,1206,"sonnets, 1",51.1856,1.4897,Downs,Smith,1
163,1204,"midwifery, 4",51.48944444,-0.088888889,East Street,Stone,4
13,1203,"zophiel1834, 4",34.80638889,48.51611111,Ecbatane,Brooks,4
1,1201,"newengland, 4",40.66626111,-74.19353056,Elizabethtown,Adams,4
21,1199,"platlady, 1",51.336,-0.267,Epsom,Centlivre,1
5,1199,"legacy, 1",51.336,-0.267,Epsom,Barbauld,1
85,1199,"poems, 1",51.336,-0.267,Epsom,Tollet,1
90,1199,"loveletters2, 1",51.336,-0.267,Epsom,Various,1
22,1197,"poems, 4",37.03333333,-7.916666667,Faro,Chalmers,4
43,1195,"romance, 2",40.765,-73.805,Flushing,Green,2
89,1195,"changingscenes, 2",40.765,-73.805,Flushing,Unknown,2
29,1193,"letters, 4",43.85166667,4.615,Gardon,Cushing,4
1,1189,"newengland, 1",55.86091667,-4.251433333,Glasgow,Adams,1
22,1189,"poems, 1",55.86091667,-4.251433333,Glasgow,Chalmers,1
33,1189,"maryqueen, 1",55.86091667,-4.251433333,Glasgow,Deverell,1
5,1189,"works2, 1",55.86091667,-4.251433333,Glasgow,Barbauld,1
150,1185,"poems, 1",52.37345,0.786761111,Grafton,Killigrew,1
57,1185,"letters, 1",52.37345,0.786761111,Grafton,Manley,1
8,1185,"happycoronation, 1; miscellany, 1",52.37345,0.786761111,Grafton,Behn,2
1,1183,"newengland, 3",41.3485,-72.0775,Groton,Adams,3
24,1183,"pilgrimpeep, 1",41.3485,-72.0775,Groton,Cheney,1
38,1182,"alcon, 3",36.78333333,-6.35,Guadalquiver,Erskine,3
42,1182,"nightbefore, 1",36.78333333,-6.35,Guadalquiver,Garnett,1
26,1181,"appeal, 1",49.45,-2.58,Guernsey,Child,1
81,1181,"manor, 3",49.45,-2.58,Guernsey,Smith,3
24,1180,"pilgrimpeep, 4",42.00517222,-70.59951667,Gurnet's Nose,Cheney,4
104,1179,"miscpoems, 1",51.4928,-0.2229,Hammersmith,Francis,1
107,1179,"miscellanies, 1",51.4928,-0.2229,Hammersmith,Jones-M,1
44,1179,"spectator01, 1",51.4928,-0.2229,Hammersmith,Haywood,1
73,1179,"inquisitor, 1",51.4928,-0.2229,Hammersmith,Rowson,1
81,1178,"desmond, 1; darcy, 2",51.5206,-0.1477,Harley-Street,Smith,3
99,1178,"poems, 1",51.5206,-0.1477,Harley-Street,Cassan,1
17,1177,"history, 2; edoct, 1",51.94458056,1.289852778,Harwich,Cary-E,3
60,1177,"gleaner, 1",51.94458056,1.289852778,Harwich,Murray,1
89,1176,"changingscenes, 4",41.19638889,-73.96694444,Haverstraw,Unknown,4
19,1174,"william, 4",53.9637,-1.2619,Hessom-Moor,Cavendish,4
1,1170,"jews, 1",31.87111111,35.44416667,Jericho,Adams,1
55,1170,"name1651, 1",31.87111111,35.44416667,Jericho,Love,1
60,1170,"gleaner, 1",31.87111111,35.44416667,Jericho,Murray,1
89,1170,"changingscenes, 1",31.87111111,35.44416667,Jericho,Unknown,1
7,1169,"patchwork, 4",52.20843056,-0.0945,Kaxton,Barker,4
1,1168,"newengland, 4",44.767,-69.8833,Kennebec,Adams,4
43,1167,"romance, 1",51.50722222,-0.180277778,Kensington Gardens,Green,1
73,1167,"inquisitor, 2",51.50722222,-0.180277778,Kensington Gardens,Rowson,2
81,1167,"manor, 1",51.50722222,-0.180277778,Kensington Gardens,Smith,1
8,1166,"miscellany, 4",52.20416667,0.116666667,Kings-College,Behn,4
27,1165,"esquimaux01, 2",53.1355,57.6604,Labrador,Clark,2
73,1165,"present, 1",53.1355,57.6604,Labrador,Rowson,1
81,1165,"conversations, 1",53.1355,57.6604,Labrador,Smith,1
11,1163,"tenthmuse, 2; several, 2",38.9,22.43333333,Lamia,Bradstreet,4
1,1162,"jews, 1",42.60555556,-5.57,Leon,Adams,1
28,1162,"bold, 3",42.60555556,-5.57,Leon,Cowley,3
104,1161,"song, 1",31.6253,35.1453,Levant,Francis,1
26,1161,"appeal, 2",31.6253,35.1453,Levant,Child,2
91,1161,"mental, 1",31.6253,35.1453,Levant,Wakefield,1
51,1160,"museum, 2",49.3317,2.4661,Liancourt,Lennox,2
74,1160,"alabama, 2",49.3317,2.4661,Liancourt,Royall,2
1,1155,"jews, 4",43.6778,4.1361,Lunel,Adams,4
11,1154,"several, 1; tenthmuse, 1",38.15,23.95,Marathon,Bradstreet,2
74,1154,"alabama, 2",38.15,23.95,Marathon,Royall,2
1,1152,"newengland, 2",14.66666667,-61,Martinico,Adams,2
26,1152,"appeal, 1",14.66666667,-61,Martinico,Child,1
7,1152,"lining, 1",14.66666667,-61,Martinico,Barker,1
1,1151,"jews, 2",24.46666667,39.6,Medina,Adams,2
5,1151,"legacy, 1",24.46666667,39.6,Medina,Barbauld,1
73,1151,"present, 1",24.46666667,39.6,Medina,Rowson,1
5,1150,"works2, 3",51.44916667,0.738333333,Medway,Barbauld,3
81,1150,"desmond, 1",51.44916667,0.738333333,Medway,Smith,1
5,1149,"legacy, 1",29.84472222,31.25083333,Memphis,Barbauld,1
66,1149,"poems1667, 2; pompey, 1",29.84472222,31.25083333,Memphis,Philips-K,3
5,1148,"poems, 1; works1, 1",53.45,-3.033,Mersey,Barbauld,2
61,1148,"poemsplay, 2",53.45,-3.033,Mersey,Nooth,2
28,1147,"pitcairne, 1; poems, 2",38.18333333,15.55,Messina,Cowley,3
71,1147,"poetical, 1",38.18333333,15.55,Messina,Robinson,1
74,1146,"alabama, 4",33.40255556,-90.86902778,Mississippi River,Royall,4
1,1145,"newengland, 1",41.35416667,-71.96638889,Mistick,Adams,1
24,1145,"pilgrimpeep, 5",41.35416667,-71.96638889,Mistick,Cheney,5
1,1144,"jews, 1",44.64694444,10.92555556,Modena,Adams,1
128,1144,"antonius, 1",44.64694444,10.92555556,Modena,Sidney,1
7,1144,"recreations, 1",44.64694444,10.92555556,Modena,Barker,1
71,1144,"thoughts, 1",44.64694444,10.92555556,Modena,Robinson,1
19,1142,"william, 4",56.708,-2.467,Montross,Cavendish,4
53,1140,"effusions, 2",55.75,37.61666667,Moscow,Lickbarrow,2
54,1140,"theodore, 1",55.75,37.61666667,Moscow,Liddiard,1
79,1140,"aborigines, 1",55.75,37.61666667,Moscow,Sigourney,1
96,1138,"fallriver, 4",41.67388889,-71.24,Mount Hope Bay,Williams,4
5,1137,"works2, 3; legacy, 1",46.66666667,6.25,Mount Jura,Barbauld,4
74,1136,"alabama, 4",34.75083333,-87.65027778,Muscle Shoals,Royall,4
1,1135,"jews, 1",55.75,37.61666667,Muscovy,Adams,1
13,1135,"zophiel1834, 1",55.75,37.61666667,Muscovy,Brooks,1
67,1135,"beau, 1",55.75,37.61666667,Muscovy,Pix,1
73,1135,"present, 1",55.75,37.61666667,Muscovy,Rowson,1
128,1134,"antonie, 2; antonius, 2",44.64694444,10.92555556,Mutina,Sidney,4
114,1133,"urania, 4",39.1,26.55,Mytelin,Wroth,4
60,1130,"gleaner, 1",42.8125,-70.87777778,Newbury-Port,Murray,1
70,1130,"narrativelife, 2",42.8125,-70.87777778,Newbury-Port,Prince,2
73,1130,"present, 1",42.8125,-70.87777778,Newbury-Port,Rowson,1
1,1127,"newengland, 3",41.35555556,-72.09944444,New London,Adams,3
24,1127,"pilgrimpeep, 1",41.35555556,-72.09944444,New London,Cheney,1
28,1126,"theman, 1",52.2459,0.4105,Newmarket,Cowley,1
51,1126,"museum, 1",52.2459,0.4105,Newmarket,Lennox,1
81,1126,"desmond, 1",52.2459,0.4105,Newmarket,Smith,1
89,1126,"witchcrafts, 1",52.2459,0.4105,Newmarket,Unknown,1
1,1125,"newengland, 1",41.845,-70.7387,New Plymouth,Adams,1
24,1125,"pilgrimpeep, 3",41.845,-70.7387,New Plymouth,Cheney,3
1,1122,"newengland, 4",44.767,-69.8833,Norridgwog,Adams,4
19,1121,"fancies, 1",90,0,Northern Pole,Cavendish,1
24,1121,"pilgrimpeep, 2",90,0,Northern Pole,Cheney,2
28,1121,"belles, 1",90,0,Northern Pole,Cowley,1
45,1121,"anjou, 2",90,0,Northern Pole,Holford,2
45,1118,"anjou, 1",59,-3.033333333,Orcades,Holford,1
79,1118,"aborigines, 1",59,-3.033333333,Orcades,Sigourney,1
81,1118,"conversations, 1; beachy, 1",59,-3.033333333,Orcades,Smith,2
29,1117,"letters, 4",43.7914,5.0389,Orgon,Cushing,4
13,1116,"idomen, 1",-17.66666667,-149.4166667,Otaheite,Brooks,1
2,1116,"epistles, 2",-17.66666667,-149.4166667,Otaheite,Aikin,2
89,1116,"changingscenes, 1",-17.66666667,-149.4166667,Otaheite,Unknown,1
125,1115,"poems, 2",34.76666667,32.41666667,Paphos,Carter,2
126,1115,"poems, 1",34.76666667,32.41666667,Paphos,Dixon,1
128,1115,"antonius, 1",34.76666667,32.41666667,Paphos,Sidney,1
37,1114,"tilburycabala, 1",44.8,10.33333333,Parma,Elizabeth,1
44,1114,"spectator02, 1",44.8,10.33333333,Parma,Haywood,1
51,1114,"museum, 1",44.8,10.33333333,Parma,Lennox,1
60,1114,"gleaner, 1",44.8,10.33333333,Parma,Murray,1
29,1113,"letters, 4",43.3,-0.37,Pau,Cushing,4
1,1112,"newengland, 3",41.28333333,-73.91666667,Peek'S-Kill,Adams,3
89,1112,"changingscenes, 1",41.28333333,-73.91666667,Peek'S-Kill,Unknown,1
51,1111,"museum, 1",51.845,-4.842222222,Pembrokeshire,Lennox,1
66,1111,"poems1667, 1; poems1664, 1",51.845,-4.842222222,Pembrokeshire,Philips-K,2
89,1111,"changingscenes, 1",51.845,-4.842222222,Pembrokeshire,Unknown,1
11,1110,"tenthmuse, 1; several, 1",39,31,Phrigia,Bradstreet,2
114,1110,"urania, 2",39,31,Phrigia,Wroth,2
150,1110,"poems, 1",39,31,Phrigia,Killigrew,1
84,1110,"revenge, 1",39,31,Phrigia,Tattle,1
1,1109,"jews, 1",49.5,2.833333333,Picardy,Adams,1
51,1109,"museum, 3",49.5,2.833333333,Picardy,Lennox,3
51,1108,"museum, 4",6.811388889,80.49972222,Picus Adami,Lennox,4
51,1106,"museum, 4",43.93333333,10.91666667,Pistoia,Lennox,4
29,1105,"letters, 4",48.8675,2.329444444,Place Vendome,Cushing,4
128,1104,"antonius, 1; antonie, 1",44.9525,12.43194444,Po,Sidney,2
71,1104,"poetical, 1",44.9525,12.43194444,Po,Robinson,1
81,1104,"conversations, 1",44.9525,12.43194444,Po,Smith,1
117,1103,"poems, 1",-19.58333333,-65.75,Potosi,Bannerman,1
13,1103,"idomen, 1",-19.58333333,-65.75,Potosi,Brooks,1
5,1103,"poems, 1; works1, 1",-19.58333333,-65.75,Potosi,Barbauld,2
13,1101,"zophiel1834, 4",23.05111111,-81.57527778,Pueblo Nuevo,Brooks,4
101,1099,"academia, 4",40.75,-73.86666667,Queens,Danvers,4
46,1098,"texas, 1",43.74120833,-110.8024139,Rocky Mountains,Holley,1
74,1098,"alabama, 1",43.74120833,-110.8024139,Rocky Mountains,Royall,1
76,1098,"aborigine, 2",43.74120833,-110.8024139,Rocky Mountains,Sanders,2
29,1097,"letters, 4",45.7464,-0.6333,Saintes,Cushing,4
19,1095,"62g-unnatural, 2",51.155,-1.809,Salisbury Plain,Cavendish,2
5,1095,"legacy, 1",51.155,-1.809,Salisbury Plain,Barbauld,1
81,1095,"manor, 1",51.155,-1.809,Salisbury Plain,Smith,1
46,1094,"texas, 4",28.34738889,-97.68919444,Salt Branch,Holley,4
46,1093,"texas, 4",29.79444444,-96.10472222,San Felipe De Austin,Holley,4
46,1092,"texas, 4",29.54694444,-94.94805556,San Jacinto,Holley,4
29,1091,"letters, 3",45.7275,4.817777778,Saone,Cushing,3
5,1091,"works2, 1",45.7275,4.817777778,Saone,Barbauld,1
17,1089,"history, 2; edoct, 1",54.287,-0.388,Scarboroughcastle,Cary-E,3
19,1089,"william, 1",54.287,-0.388,Scarboroughcastle,Cavendish,1
89,1088,"changingscenes, 4",38.73063056,-83.012675,Sciota,Unknown,4
26,1086,"appeal, 4",13.45,-6.266666667,Sego,Child,4
26,1085,"appeal, 2",14.66666667,-17.41666667,Senegal,Child,2
49,1085,"memoir, 1",14.66666667,-17.41666667,Senegal,Kilham,1
79,1085,"aborigines, 1",14.66666667,-17.41666667,Senegal,Sigourney,1
81,1082,"desmond, 4",51.464,-0.266,Sheen,Smith,4
70,1077,"narrativelife, 2; westindies, 2",17.99587778,-76.95510833,Spanish Town,Prince,4
107,1076,"miscellanies, 1",51.755,-0.336,St. Albans,Jones-M,1
19,1076,"william, 1",51.755,-0.336,St. Albans,Cavendish,1
45,1076,"anjou, 2",51.755,-0.336,St. Albans,Holford,2
70,1075,"narrativelife, 2; westindies, 2",18.2,-77.467,St. Ann,Prince,4
89,1074,"witchcrafts, 4",52.85,-0.85,Stathorne,Unknown,4
44,1073,"love01, 1; love02, 2",48.9356,2.3539,St. Dennis,Haywood,3
51,1073,"museum, 1",48.9356,2.3539,St. Dennis,Lennox,1
114,1072,"urania, 4",47.25,15.16666667,Stiria,Wroth,4
13,1071,"zophiel1834, 3",59.32944444,18.06861111,Stockholm,Brooks,3
87,1071,"thoughts, 1",59.32944444,18.06861111,Stockholm,Trench,1
1,1070,"newengland, 3",41.241,-73.974,Stoney-Point,Adams,3
89,1070,"changingscenes, 1",41.241,-73.974,Stoney-Point,Unknown,1
89,1068,"changingscenes, 4",39.65722222,-77.17055556,Tawnytown,Unknown,4
112,1066,"irishharp, 1",52.474,-8.162,Tipperary,Owenson,1
43,1066,"romance, 1",52.474,-8.162,Tipperary,Green,1
49,1066,"memoir, 2",52.474,-8.162,Tipperary,Kilham,2
43,1063,"romance, 2",54.917,-8,Tyrconnel,Green,2
58,1063,"feudal, 2",54.917,-8,Tyrconnel,Maxwell,2
81,1060,"desmond, 4",38.73527778,-77.09527778,Vernon,Smith,4
89,1059,"changingscenes, 4",40.708,-74.011,Wall- Street,Unknown,4
97,1058,"goodwin, 4",51.6875,-0.0035,Waltham Abbey,Yearsley,4
1,1057,"newengland, 3",41.73027778,-71.2825,Warren,Adams,3
96,1057,"fallriver, 1",41.73027778,-71.2825,Warren,Williams,1
5,1056,"works1, 1",53.39166667,-2.597222222,Warrington,Barbauld,1
77,1056,"advocate, 1",53.39166667,-2.597222222,Warrington,Scott,1
89,1056,"changingscenes, 1",53.39166667,-2.597222222,Warrington,Unknown,1
9,1056,"geniad, 1",53.39166667,-2.597222222,Warrington,Benger,1
1,1055,"newengland, 2",41.71416667,-72.6525,Weathersfield,Adams,2
24,1055,"pilgrimpeep, 2",41.71416667,-72.6525,Weathersfield,Cheney,2
1,1053,"newengland, 2",34.22333333,-77.91222222,Wilmington,Adams,2
23,1053,"poetical, 1",34.22333333,-77.91222222,Wilmington,Chandler,1
74,1053,"alabama, 1",34.22333333,-77.91222222,Wilmington,Royall,1
89,1050,"changingscenes, 4",39.94611111,-82.01222222,Zainesville,Unknown,4
89,1049,"changingscenes, 4",39.94611111,-82.01222222,"Zainesville, Ohio,",Unknown,4
29,1046,"letters, 5",47.40416667,0.98,Amboise,Cushing,5
117,1044,"poems, 1",90,-135,Arctic,Bannerman,1
139,1044,"poems, 1",90,-135,Arctic,Campbell,1
28,1044,"poems, 1",90,-135,Arctic,Cowley,1
79,1044,"aborigines, 2",90,-135,Arctic,Sigourney,2
100,1042,"essays, 1",40.15722222,24.32638889,Athos,Chudleigh,1
11,1042,"several, 1",40.15722222,24.32638889,Athos,Bradstreet,1
114,1042,"urania, 1",40.15722222,24.32638889,Athos,Wroth,1
72,1042,"poems, 1",40.15722222,24.32638889,Athos,Rowe,1
85,1042,"poems, 1",40.15722222,24.32638889,Athos,Tollet,1
81,1041,"desmond, 5",45.33333333,3,Auvergne,Smith,5
13,1039,"idomen, 1",24.25,-76,Bahamas,Brooks,1
26,1039,"appeal, 3",24.25,-76,Bahamas,Child,3
73,1039,"present, 1",24.25,-76,Bahamas,Rowson,1
5,1037,"works2, 3",48.853333,2.369167,Bastile,Barbauld,3
60,1037,"gleaner, 1",48.853333,2.369167,Bastile,Murray,1
71,1037,"thoughts, 1; poetical, 2",48.853333,2.369167,Bastile,Robinson,3
81,1037,"desmond, 2",48.853333,2.369167,Bastile,Smith,2
29,1036,"letters, 5",43.80805556,4.644166667,Beaucaire,Cushing,5
5,1035,"works2, 5",47.24305556,6.021944444,Besancon,Barbauld,5
1,1033,"jews, 1",43.3475,3.218888889,Beziers,Adams,1
29,1033,"letters, 3",43.3475,3.218888889,Beziers,Cushing,3
5,1033,"works2, 1",43.3475,3.218888889,Beziers,Barbauld,1
44,1032,"spectator03, 2",18.975,72.82583333,Bombay,Haywood,2
48,1032,"account, 3",18.975,72.82583333,Bombay,Judson,3
139,1030,"poems, 4",60.15,-1.083333333,Baard,Campbell,4
22,1030,"poems, 11",60.15,-1.083333333,Baard,Chalmers,11
26,1029,"appeal, 1",48.38333333,-4.483333333,Brest,Child,1
7,1029,"lining, 1",48.38333333,-4.483333333,Brest,Barker,1
81,1029,"manor, 3",48.38333333,-4.483333333,Brest,Smith,3
44,1028,"spectator02, 2",48,-3,Bretagne,Haywood,2
51,1028,"museum, 1",48,-3,Bretagne,Lennox,1
81,1028,"desmond, 1",48,-3,Bretagne,Smith,1
91,1028,"mental, 1",48,-3,Bretagne,Wakefield,1
5,1025,"poems, 1; works2, 1; works1, 1",53.259,-1.911,Buxton,Barbauld,3
85,1025,"poems, 2",53.259,-1.911,Buxton,Tollet,2
29,1022,"letters, 5",48.9575,4.365,Chalons,Cushing,5
48,1021,"account, 1",50,-2,British Channel,Judson,1
5,1021,"legacy, 1; works2, 3",50,-2,British Channel,Barbauld,4
51,1021,"museum, 1",50,-2,British Channel,Lennox,1
81,1021,"desmond, 1",50,-2,British Channel,Smith,1
19,1019,"william, 1",52.83333333,-9,Clare,Cavendish,1
49,1019,"memoir, 4",52.83333333,-9,Clare,Kilham,4
119,1018,"poeticalworks, 1",55.67952778,-4.971305556,Clutha,Little,1
5,1018,"works2, 7",55.67952778,-4.971305556,Clutha,Barbauld,7
51,1018,"museum, 1",55.67952778,-4.971305556,Clutha,Lennox,1
19,1017,"william, 3; natpix, 1",51.8917,0.903,Colchester,Cavendish,4
8,1017,"miscellany, 1",51.8917,0.903,Colchester,Behn,1
1,1016,"jews, 5",50.93638889,6.952777778,Colen,Adams,5
14,1016,"reformation, 2",50.93638889,6.952777778,Colen,Bullard,2
15,1016,"case, 6",50.93638889,6.952777778,Colen,Carleton,6
60,1016,"gleaner, 1",50.93638889,6.952777778,Colen,Murray,1
8,1016,"patient, 1",50.93638889,6.952777778,Colen,Behn,1
76,1014,"aborigine, 5",35.265,-83.4175,Cowe,Sanders,5
1,1013,"jews, 1",45.16666667,15.5,Croatia,Adams,1
114,1013,"urania, 4",45.16666667,15.5,Croatia,Wroth,4
26,1012,"appeal, 1",37.14333333,-88.4075,Cumberland River,Child,1
74,1012,"alabama, 4",37.14333333,-88.4075,Cumberland River,Royall,4
5,1011,"poems, 2; works1, 3",32.825,21.85805556,Cyrnus,Barbauld,5
51,1010,"museum, 4",53.96166667,-1.080555556,Deira,Lennox,4
71,1010,"thoughts, 1",53.96166667,-1.080555556,Deira,Robinson,1
1,1009,"newengland, 1",50.04888889,9.018333333,Dettingen,Adams,1
107,1009,"miscellanies, 1",50.04888889,9.018333333,Dettingen,Jones-M,1
44,1009,"spectator01, 3",50.04888889,9.018333333,Dettingen,Haywood,3
27,1008,"esquimaux01, 1",50.8,-2.3,Dorsetshire,Clark,1
28,1008,"belles, 1",50.8,-2.3,Dorsetshire,Cowley,1
51,1008,"museum, 2",50.8,-2.3,Dorsetshire,Lennox,2
81,1008,"conversations, 1",50.8,-2.3,Dorsetshire,Smith,1
1,1007,"newengland, 3",28.21447222,-81.58541667,East-Florida,Adams,3
26,1007,"appeal, 1",28.21447222,-81.58541667,East-Florida,Child,1
76,1007,"aborigine, 1",28.21447222,-81.58541667,East-Florida,Sanders,1
30,1004,"appearance, 3; gospel, 1; blasphemous, 1",51.443,-1.1,Englefield,Davies,5
89,1003,"changingscenes, 5",40.86,-74,English Neighbourhood,Unknown,5
49,1002,"memoir, 5",53.5167,-0.8167,Epworth,Kilham,5
20,1001,"maldef, 1",51.51361111,-0.087222222,Exchange,Cellier,1
67,1001,"beau, 2",51.51361111,-0.087222222,Exchange,Pix,2
7,1001,"lining, 1",51.51361111,-0.087222222,Exchange,Barker,1
90,1001,"loveletters2, 1",51.51361111,-0.087222222,Exchange,Various,1
74,1000,"alabama, 5",35.0525,-78.87805556,Fayetteville,Royall,5
1,999,"jews, 3",44.83333333,11.61666667,Ferrara,Adams,3
114,999,"urania, 1",44.83333333,11.61666667,Ferrara,Wroth,1
60,999,"gleaner, 1",44.83333333,11.61666667,Ferrara,Murray,1
51,998,"museum, 5",48.4097,2.7025,Fontainebleau,Lennox,5
1,997,"newengland, 5",40.85277778,-73.93805556,Fort- Washington,Adams,5
1,994,"newengland, 2",36.13166667,-5.351666667,Gibraltar,Adams,2
11,994,"tenthmuse, 1; several, 1",36.13166667,-5.351666667,Gibraltar,Bradstreet,2
39,994,"shortrelation, 2",36.13166667,-5.351666667,Gibraltar,Evans,2
60,994,"gleaner, 1",36.13166667,-5.351666667,Gibraltar,Murray,1
71,994,"poetical, 1",36.13166667,-5.351666667,Gibraltar,Robinson,1
45,993,"anjou, 4",51.87,-2.24,Gloster,Holford,4
97,993,"goodwin, 1",51.87,-2.24,Gloster,Yearsley,1
136,990,"poems, 1",55.002,-3.066,Gretna Green,Prescott,1
28,990,"greencoat, 1",55.002,-3.066,Gretna Green,Cowley,1
43,990,"romance, 1",55.002,-3.066,Gretna Green,Green,1
73,990,"inquisitor, 2",55.002,-3.066,Gretna Green,Rowson,2
1,989,"newengland, 1",16.25,-61.58333333,Guadaloupe,Adams,1
26,989,"appeal, 2",16.25,-61.58333333,Guadaloupe,Child,2
46,989,"texas, 7",16.25,-61.58333333,Guadaloupe,Holley,7
46,988,"texas, 3",25,-90,Gulf Of Mexico,Holley,3
73,988,"present, 1",25,-90,Gulf Of Mexico,Rowson,1
74,988,"alabama, 1",25,-90,Gulf Of Mexico,Royall,1
19,987,"william, 5",51.5406,0.0017,Hamborough,Cavendish,5
19,986,"william, 2",51.50405556,-0.150055556,Hamilton,Cavendish,2
33,986,"maryqueen, 1",51.50405556,-0.150055556,Hamilton,Deverell,1
44,986,"spectator04, 1",51.50405556,-0.150055556,Hamilton,Haywood,1
51,986,"museum, 1",51.50405556,-0.150055556,Hamilton,Lennox,1
60,985,"gleaner, 5",51.50405556,-0.150055556,Hamilton-Place,Murray,5
107,984,"miscellanies, 1",51.51388889,-0.144166667,Hanover-Square,Jones-M,1
12,984,"emily, 1",51.51388889,-0.144166667,Hanover-Square,Brooke,1
44,984,"spectator01, 1",51.51388889,-0.144166667,Hanover-Square,Haywood,1
50,984,"poems2, 1",51.51388889,-0.144166667,Hanover-Square,Leapor,1
81,984,"whatisshe, 1",51.51388889,-0.144166667,Hanover-Square,Smith,1
115,982,"first, 2",45.7983,5.2947,Hieres,Askew,2
5,982,"works2, 5",45.7983,5.2947,Hieres,Barbauld,5
20,981,"maldef, 1",51.5172,-0.1182,Holborn,Cellier,1
30,981,"appearance, 1",51.5172,-0.1182,Holborn,Davies,1
73,981,"inquisitor, 1",51.5172,-0.1182,Holborn,Rowson,1
8,981,"miscellany, 1",51.5172,-0.1182,Holborn,Behn,1
81,981,"manor, 1",51.5172,-0.1182,Holborn,Smith,1
26,979,"appeal, 1",52.3364,-0.1717,Huntingdon,Child,1
30,979,"appearance, 1",52.3364,-0.1717,Huntingdon,Davies,1
45,979,"anjou, 1",52.3364,-0.1717,Huntingdon,Holford,1
5,979,"works2, 1",52.3364,-0.1717,Huntingdon,Barbauld,1
94,979,"poems, 1",52.3364,-0.1717,Huntingdon,Wheatley,1
19,978,"william, 2",52.3364,-0.1717,Huntington,Cavendish,2
56,978,"essays, 1",52.3364,-0.1717,Huntington,Makin,1
60,978,"gleaner, 1",52.3364,-0.1717,Huntington,Murray,1
97,978,"goodwin, 1",52.3364,-0.1717,Huntington,Yearsley,1
139,977,"poems, 7",57.48333333,-4.233333333,Inchdorrock,Campbell,7
15,975,"case, 1",51.544,-0.1027,Islington,Carleton,1
20,975,"maldef, 1",51.544,-0.1027,Islington,Cellier,1
8,975,"emperor, 1",51.544,-0.1027,Islington,Behn,1
89,975,"changingscenes, 2",51.544,-0.1027,Islington,Unknown,2
1,973,"jews, 5",9.664722222,80.01666667,Jafna,Adams,5
46,970,"texas, 5",28.61555556,-96.62972222,La Baca,Holley,5
45,968,"poems, 2",-34.92111111,-57.95444444,La Plata,Holford,2
5,968,"works1, 1",-34.92111111,-57.95444444,La Plata,Barbauld,1
79,968,"aborigines, 2",-34.92111111,-57.95444444,La Plata,Sigourney,2
14,966,"reformation, 1",52.71666667,-1.183333333,Leicestershire,Bullard,1
19,966,"william, 2",52.71666667,-1.183333333,Leicestershire,Cavendish,2
44,966,"spectator04, 1",52.71666667,-1.183333333,Leicestershire,Haywood,1
51,966,"museum, 1",52.71666667,-1.183333333,Leicestershire,Lennox,1
