simpleName,repList,,count,samID,newsamID,comments,latitude,longitude,uniqIDnowuseless,DisplayName
avon|avons,avon|avon's,,11,657|1670,8008,,,,657|1670,Avon
branford,branford,,2,2455,8009,,,,2455,Branford
burton,burton,,4,1240,8010,,,,1240,Burton
england|englande|englands|englengland,england|eng land|england:|en gland|england;|englande|england's|englands|en glands|englengland|engl.england,,1784,1|441|42|2307,1,one of several rivers in England|one of several rivers in England|?|Too many Burtons in England to figure out||||,51.5,-0.116666667,1|441|42|2307,England
france|frances|fraunce,france|france.|france;|france's|fraunce,,912,2|1543|1539,2,||,48.85,2.35,2|1543|1539,France
london|londons,london|lon don|london;|london's|londons,,838,3|815,3,|,51.50722222,-0.1275,3|815,London
rome|romes,rome|rome's|romes,,858,4|71,4,|,41.9,12.5,4|71,Rome
america|americancontinent|americas,america|ame rica|amer ica|american continent|america's,,500,5|2532|1687,5,||,21.31611111,-81.25055556,5|2532|1687,America
paris,paris,,449,6,6,,48.8567,2.3508,6,Paris
heaven,heaven|hea ven,,365,7,7,Biblical place,NA,NA,7,Heaven
hierusalem|ierusalem|ierusalems|jerusalem|jerusalems,"hierusalem|ierusalem|ie rusalem|ierusalems|jerusalem|jeru salem|jerusa lem|jerusalem,|jerusalem.|jerusalem;|jerusalems",,458,571|49|1494|8|1485,8,||||,31.78333333,35.21666667,571|49|1494|8|1485,Jerusalem
europe|europes,"europe|europe,|europe's|europes",,380,9|162,9,|,53.58333333,23.1,9|162,Europe
mass|massachusetts|massachusettsprovince,mass|mass.|massachusetts|massa chusetts|massachusetts'|massachu setts|mas sachusetts|massachusetts province,,340,693|10|2085,10,||,42.3,-71.8,693|10|2085,Massachusetts 
newyork|newyorkisland,new york|new- york|new-york|new york.|new-york;|new-york island,,317,11|938,11,|,40.7127,-74.0059,11|938,New York
spain|spaine|spaines|spains|spayne,spain|spain;|spaine|spaines|spain's|spains|spayne,,361,12|220|771|283|1837,12,||||,40,-4,12|220|771|283|1837,Spain
newengland|newenglands,new england|new-england|new eng land|new england's|new-england's,,300,13|1129,13,|,44,-71,13|1129,New England
affrica|affrick|affricke|affricks|afric|africa|africancoast|africas|africk|africks|africs|afrique,affrica|affrick|affricke|affricks|afric|africa|afri ca|african coast|africa's|africk|africk's|afric's|afrique,,350,14|14|14|14|14|14|14|14|14|14|14|14,14,Africa|Africa|Africa|Africa|Africa|Africa|Africa|Africa|Africa|Africa|Africa|Africa,2.616666667,16.1,2557|740|2556|2555|527|14|2554|2553|1695|2552|189|2551,Africa
aegipt|aegipts|aegypt|aegypts|egipt|egipte|egypt|egypte|egypts,aegipt|aegipts|aegypt|ae gypt|aegypts|aegypt's|egipt|egipte|egypt|egypte|egypt's|egypts,,387,15|15|15|15|273|2316|15|15|15,15,||||||||,26,30,878|2559|128|741|273|2316|15|1563|153,Egypt
boston|bostonneck|bostons,boston|bos ton|boston neck|boston's,,236,16|2466|2465,16,||,42.35805556,-71.06361111,16|2466|2465,Boston
italy|italys|italie,italy|italy's|italys|italie,,247,17|2172|384,17,,43,12,17,Italy
ireland|irelands,ireland|ire land|irelands,,228,18|1493,18,|,53.41666667,-8,18|1493,Ireland
britain|britaine|britains|britainsisle|britannia|britannias|britanniasaxonica|britiain|britishislands|britishisles|briton|brittanias,britain|britaine|britain's|britains|britain's isle|britannia|britannia's|britannia saxonica|britiain|british islands|british isles|briton|brittania's,,392,19|1027|62|1632|130|205|2449|2447|1631|1630|1629|2444,19,|||||||||||,53.82556389,-2.421977778,19|1027|62|1632|130|205|2449|2447|1631|1630|1629|2444,Britain | British Isles
unitedstates|unitedstatesofamerica,united states|united states.|united states of america,,211,20|536,20,Too big? Put D.C. as the coordinates?|Too big? Put D.C. as the coordinates?,38.90472222,-77.01638889,20|536,United States
germanie|germanies|germany,germanie|germanie's|germanies|germany|ger many|germa ny,,208,995|1190|21,21,||,51.163375,10.44768333,995|1190|21,Germany
grecia|greece,grecia|greece|greece;,,214,341|22,22,|,37.96666667,23.71666667,341|22,Greece
quebec,que bec|quebec,,193,23,23,,53,-70,23,Quebec
caledonia|caledonias|scotland|scotlands|zetland,caledonia|caledonia's|scotland|scot land|scotland's|scotlands|zetland,,247,520|859|24|229|237,24,||||,55.95305556,-3.188888889,520|859|24|229|237,Scotland | Caledonia | Zetland
virginia,virginia|virgi nia,,163,25,25,,38,-79,25,Virginia
israel|israell|israels|izraells,israel|isra el|israell|israel's|izraells,,196,26|299|414|2171,26,|||,31.6253,35.1453,26|299|414|2171,Israel
plymouth,plymouth,,154,27,27,moved 6 to 7010,41.845,-70.7387,27,Plymouth
hell,hell,,162,28,28,Biblical place,NA,NA,28,Hell
greatbritain|greatbritaine|greatbritains|greatbrittain|greatbrittaine|greatbrittaines|greatbrittains,great britain|great-britain|great bri tain|great britaine|great bri tains|great britains|great britain's|great brittain|great- brittain|great brittaine|great brittaines|great brittains,,190,29|1524|833|575|992|2248|1184,29,||||||,53.82556389,-2.421977778,29|1524|833|575|992|2248|1184,Great Britain
canada,canada,,159,30,30,,60,-95,30,Canada
connecticut,connec ticut|connecticut,,153,31,31,,41.6,-72.7,31,Connecticut
rangoon,rangoon,,149,32,32,,16.85,96.18333333,32,Rangoon
earth,earth,,149,33,33,too vague,NA,NA,33,Earth
bath|baths,"bath|bath,|bath's",,150,34|2495,34,|,51.38,-2.36,34|2495,Bath
holland,holland|hol land,,147,35,35,,52.25,4.667,35,Holland
heauen,heauen,,137,36,36,Biblical place,NA,NA,36,Heaven
babilon|babylon|babylonia|babylons,babilon|babilon;|babylon|ba bylon|babylonia|babylons|babylon's,,161,363|37|2503|525,37,Biblical place|Biblical place|Biblical place|Biblical place,NA,NA,363|37|2503|525,Babylon
asia|asias,asia|a sia|asia's|asias,,141,38|485,38,|,43.68111111,87.33111111,38|485,Asia
philadelphia,philadelphia|philadel phia|phila delphia|phi ladelphia,,127,39,39,,39.95277778,-75.16361111,39,Philadelphia
sierraleone,sierra leone|sierra-leone,,125,40,40,,8.5,-11.5,40,Sierra Leone
silleri,silleri,,123,41,41,,46.77361111,-71.26111111,41,Silleri
purgatory,purgatory,,115,43,43,mythical place,NA,NA,43,Purgatory
montfleuri|montfleuris,mont fleuri|montfleuri's,,117,44|1143,44,|,45.76,4.84,44|1143,Montfleuri
york|yorke|yorks,york|yorke|york's,,105,45|1051|1273,45,||County town of Yorkshire county,53.95833333,-1.080277778,45|1051|1273,York
jamaca|jamaica|jamaicas,jamaca|jamaica|jamaica's,,99,1489|46|2169,46,||,18,-77,1489|46|2169,Jamaica
troy|troyes|troys,troy|troyes|troys|troy's,,103,47|664|1064,47,||,39.9575,26.23888889,47|664|1064,Troy
morea,morea,,92,48,48,,37.6,22.2,48,Morea
venetia|venetias|venice,venetia|venetia's|venice,,96,1290|1289|50,50,||,45.4375,12.33583333,1290|1289|50,Venice
india|indias,india|in dia|india's,,119,51|186,51,|,21,78,51|186,India
rhodeisland|ri,rhode island|rhode-isl and|rhode-island|r. i.,,91,52|1922,52,|,41.7,-71.5,52|1922,Rhode Island
oxford|oxforde|oxon,oxford|ox ford|oxforde|oxon.|oxon,,94,53|1397|1998,53,||,51.7611,-1.2534,53|1397|1998,Oxford
naples,naples|na ples,,88,54,54,,40.845,14.25833333,54,Naples
texas,texas,,87,55,55,,31,-100,55,Texas
newhampshire,new-hamp shire|new-hampshire|new hampshire,,87,56,56,,44,-71.5,56,New Hampshire
montreal,mont real|mon treal|montreal,,84,57,57,,45.50888889,-73.56166667,57,Montreal
zion,zion,,83,58,58,biblical place,NA,NA,58,Zion
portugal|portugall,portugal|por tugal|portugall,,85,59|1942,59,|,38.7,-9.183333333,59|1942,Portugal
athens,athens|athen's|athens',,83,60,60,,37.96666667,23.71666667,60,Athens
persia|persias,persia|persia's,,90,61|613,61,|,29.93444444,52.89138889,61|613,Persia
bristol|bristolferry|bristoll|bristow,bristol|bristol ferry|bristoll|bristow,,91,63|2451|2450|861,63,|||,51.45,-2.583333333,63|2451|2450|861,Bristol
ava,ava,,79,64,64,"one instance biblical place; all others kingdom of Ava in modern Myanmar Note: all these occur in Ann Judson, Account",21.85,95.98333333,64,Ava
southcarolina,south carolina|south- carolina,,78,65,65,,34,-81,65,South Carolina
georgia,georgia|geor gia,,76,66,66,,33,-83.5,66,Georgia
macedon,macedon,,74,67,67,,40.75466944,22.52105,67,Macedon
sparta|spartas,sparta|sparta's,,85,68|403,68,|,37.08194444,22.42361111,68|403,Sparta
florence,florence,,72,69,69,,43.78333333,11.25,69,Florence
palestine|palestines,palestine|pales tine|palestine's,,73,70|1991,70,|,31.6253,35.1453,70|1991,Palestine
yorkshire,yorkshire|york-shire|york shire,,65,72,72,,54,-2,72,Yorkshire
cicely|cicilia|cicilie|sicil|sicilia|sicilias|sicilie|sicill|sicily,cicely|cicilia|cicilie|sicil|sicilia|si cilia|sicilia's|sicilie|sicill|sicily|si cily,,101,2372|2371|2370|1338|608|1337|491|773|73,73,||||||||,37.5,14,2372|2371|2370|1338|608|1337|491|773|73,Sicily
newhaven,new-haven|new haven,,62,74,74,,41.31,-72.92361111,74,New Haven
iudea|iudeas|judea|judeas,iudea|iudeas|judea|judea;|judea's,,78,505|974|75|2158,75,|||,32.5,34.9,505|974|75|2158,Judea
pallmall,pall mall|pall-mall|pall-mall.,,60,76,76,,51.50694444,-0.133055556,76,Pall Mall
newcastle|newcastles|newcastleupontyne,newcastle|newcastle'|new-castle|new-ca stle|newcastle.|newcastles|newcastle's|newcastle upon tyne,,71,77|804|941,77,||,54.96666667,-1.6,77|804|941,Newcastle
clargesstreet,clarges street,,60,78,78,,51.5,-0.133333333,78,Clarges Street
bengal,bengal|ben gal,,60,79,79,,23.97,88.62,79,Bengal
alexandria|alexandrie,alexandria|alex andria|alexan dria|alexandrie,,61,80|80,80,|,31.2,29.91666667,80|2539,Alexandria
cambria|cambrias|wales,cambria|cambria's|wales|wales',,70,1023|733|81,81,||,52.3,-3.6,1023|733|81,Wales | Cambria
sion,sion|si on,,58,82,82,biblical place,NA,NA,82,Sion
russia|russias,russia|russia's|russias,,63,83|919,83,|,60,90,83|919,Russia
newgate,newgate|new-gate,,58,84,84,,51.51474722,-0.100338889,84,Newgate
fallriver,fall river|fall-river,,58,85,85,,41.70138889,-71.15555556,85,Fall River
cambridg|cambridge|cambrydge,cambridg|cambridge|cam bridge|cambrydge,,64,1614|86|1613,86,||,52.205,0.119,1614|86|1613,Cambridge
constantinople,constantinople,,57,87,87,,41.01388889,28.95555556,87,Constantinople
providence,providence,,56,88,88,,41.82361111,-71.42222222,88,Providence
portsmouth,ports mouth|portsmouth|portsmouth!,,33,89,89,England : 23 moved to 7011-7013,50.81666667,-1.083333333,89,Portsmouth
dublin,dublin|dub lin,,56,90,90,,53.35,-6.266666667,90,Dublin
parnassus,parnassus|parnassus',,55,91,91,mythical place,NA,NA,91,Parnassus
kent,kent|kent;,,54,92,92,,51.2,0.7,92,Kent
flanders,flanders|flanders;|flan ders,,54,93,93,,51,4.5,93,Flanders
siria|syria|syrias,siria|syria|syria's,,66,1851|94|454,94,||,35,38,1851|94|454,Syria
eden,eden,,53,95,95,biblical place,NA,NA,95,Eden
canaan,canaan,,53,96,96,biblical place,NA,NA,96,Canaan
burmah|burman|burmanempire|burmans,burmah|burman|burman empire|burmans,,72,97|1621|390|2437,97,|||,22,96,97|1621|390|2437,Burma
arcadia|arcadias,arcadia|arcadia's,,58,98|1045,98,"Mythology, Greek|",NA,NA,98|1045,Arcadia
salem,salem|sa lem,,39,99,99,13 moved to 1715,42.51684444,-70.89850278,99,Salem
hypotofa,hypotofa,,52,100,100,fictional place,NA,NA,100,Hypotofa
dover,dover,,50,101,101,,51.1295,1.3089,101,Dover
ohio,ohio|ohio;,,49,102,102,,40.5,-82.5,102,Ohio
ijaveo,ijaveo,,49,103,103,fictional place,NA,NA,103,Ijaveo
euphrates,euphrates|euphrates',,49,104,104,,31.005,47.44194444,104,Euphrates
atlantic|atlanticocean,atlantic|at lantic|atlantic ocean,,55,105|873,105,|,0,-25,105|873,Atlantic
westindia|westindiaislands|westindies,west india|west-india|west-india islands|west india islands|west indies|west-in dies|west-indies|west in dies,,72,401|450|106,106,||,24,-71,401|450|106,West Indies
thames,thames|thames;,,48,107,107,,51.4989,0.6087,107,Thames
pennsylvania,pennsylvania,,48,108,108,,41,-77.5,108,Pennsylvania
huntsville,huntsville,,48,109,109,,34.73,-86.585,109,Huntsville
corinth|corinthia|corinths,corinth|co rinth|co rinthia|corinth's|corinths,,53,110|1590|2361,110,||,37.93333333,22.93333333,110|1590|2361,Corinth
tennessee,tennessee|ten nessee,,47,111,111,,36,-86,111,Tennessee
alban|albania|albanias,alban|albania|albania's,,50,112|112|112,112,||,41,20,2543|112|2542,Albania
missisippi|mississippi,missisippi|mississippi,,48,1433|113,113,|,33.40255556,-90.86902778,1433|113,Mississippi
charleston,charleston|charles ton,,45,114,114,,32.78333333,-79.93333333,114,Charleston
canterbury|canterburys,canterbury|can terbury|canterbury's,,47,115|2421,115,|,51.275,1.087,115|2421,Canterbury
amsterdam,amsterdam|am sterdam,,45,116,116,,52.36666667,4.9,116,Amsterdam
hungaria|hungarie|hungary,hungaria|hungarie|hungary|hun gary,,49,1501|2194|117,117,||,47,20,1501|2194|117,Hungary
denmark|denmarke|denmarks,denmark|den mark|denmarke|denmark's,,57,118|1578|514,118,||,56,10,118|1578|514,Denmark
bellfield|bellfieldrutland,"bellfield|bellfield, rutland",,46,119|2485,119,|,52.65,-0.633333333,119|2485,Bellfield
saratoga,saratoga,,43,120,120,,42.99888889,-73.6375,120,Saratoga
orleans,orleans,,42,121,121,,47.9025,1.909,121,Orleans
indies,indies|in dies,,42,122,122,too vague,NA,NA,122,Indies
assyria|assyrias,assyria|assyria's,,45,123|1674,123,|,NA,NA,123|1674,Assyria
albany,albany,,42,124,124,City in New York,42.6525,-73.75722222,124,Albany
devon|devons|devonshire,devon|devon's|devonshire,,51,1210|843|125,125,||,50.71666667,-3.716666667,1210|843|125,Devon | Devonshire
cuba,cuba,,41,126,126,,22,-80,126,Cuba
lyons,lyons|lyon's,,40,127,127,,45.76,4.84,127,Lyon
mexico,mexico|mexi co,,39,129,129,,23,-102,129,Mexico
albion|albions,albion|albion's|albions,,67,131|131,131,Albion (Great Britain)|Albion,53.82556389,-2.421977778,131|197,Albion
romania,romania,,38,132,132,,46,25,132,Romania
westwolverton|wolverton,west wol verton|wolverton,,41,133|1052,133,|,52.06265,-0.8102,133|1052,Wolverton
northamerica,north america|north- america|north ame rica|north-america,,37,134,134,too vague,NA,NA,134,North America
norfolk,norfolk,,27,135,135,England 1 deleted because not a place,52.66666667,1,135,Norfolk
louisiana,louisiana|loui siana,,37,136,136,,31,-92,136,Louisiana
kingston,kingston|king ston|kings ton,,30,137,137,deleted the 7 from England because there are too many kingstons in england.. could not identify them,18,-76.78333333,137,Kingston
delaware,delaware,,37,138,138,,39,-75.5,138,Delaware
brazos|brazosriver,brazos|brazos river,,45,139|653,139,river in Texas|river in Texas,28.87583333,-95.37833333,139|653,Brazos | Brazos River
romagnecourt,romagne court,,36,140,140,,44.75,11,140,Romagne Court
northumberland,northumberland|nor thumberland,,36,141,141,,55.16666667,-2,141,Northumberland
kentucky,kentucky|ken tucky,,36,142,142,,37.5,-85,142,Kentucky
babel|babell|babels,babel|babell|babel's|babels,,61,143|1040|290,143,Biblical place|Biblical place|Biblical place,NA,NA,143|1040|290,Babel
alba|albas,alba|alba's,,39,144|144,144,"City of Alba Longa, classical neighbor of Rome|City of Alba Longa, classical neighbor of Rome",41.74691111,12.65026111,144|1693,Alba
whitehal|whitehall|whitehallgate,whitehal|whitehall|white-hall|white hall|white-hall- gate|white-hall gate,,39,1725|145|1724,145,|??|,51.50416667,-0.126388889,1725|145|1724,Whitehall
blazingworld,blazing- world,,35,146,146,,NA,NA,146,Blazing- World
trent|trident,trent|trident,,36,147|1772,147,|,46.06666667,11.11666667,147|1772,Trent
saybrook,saybrook,,34,148,148,,41.29388889,-72.3825,148,Saybrook
rutland,rutland,,34,149,149,,52.65,-0.633333333,149,Rutland
poland,poland,,34,150,150,,52,20,150,Poland
lebanon|lebanons,lebanon|lebanon;|lebanon's,,39,151|967,151,|,33.83333333,35.83333333,151|967,Lebanon
gallia|gallias,gallia|gallia's,,58,232|152,152,|,48.85,2.35,232|152,Gallia
china|chinas,china|china's,,36,154|2379,154,|,34.0479,100.6197,154|2379,China
carthage|carthagena,carthage|carthage;|carthagena,,35,155|NA,155,"|Carthage (disambiguated from Cartagena) in Cowley, More ways than one, 1813",36.8528,10.3233,155|NA,Carthage
arabia|arabias|arabs|araby,arabia|arabia's|arabias|arab's|araby,,55,156|364|2527|1258,156,|||,19.4914,47.449,156|364|2527|1258,Arabia
antwerp,antwerp,,34,157,157,,51.21666667,4.4,157,Antwerp
alpes|alps,alpes|alps,,39,1047|158,158,|,46.5,9.316666667,1047|158,Alps
sully,sully,,33,159,159,title: not a place,NA,NA,159,Sully
rouen,rouen,,33,160,160,,49.44,1.1,160,Rouen
maryland,maryland|mary land,,33,161,161,,39,-76.7,161,Maryland
bohemia,bohemia,,33,163,163,,50,15,163,Bohemia
avignon,avignon,,33,164,164,,43.95,4.816666667,164,Avignon
malta,malta,,32,165,165,,35.88333333,14.5,165,Malta
eastindia|eastindies,east-india|east india|east indies|east-indies|east in dies,,37,1006|166,166,|,22.5726,88.3639,1006|166,East-Indies
shrewsbury,shrewsbury,,31,167,167,,52.708,-2.754,167,Shrewsbury
salerno,sa lerno,,31,168,168,,40.68333333,14.76666667,168,Salerno
newport,newport|new port,,29,169,169,"2 deleted (1, shropshire; 1, earl of newport) for threshhold",41.48800278,-71.31262222,169,Newport
milan|milans|millain|millaine|millan,milan|milan's|milans|millain|millaine|millan,,42,170|1439|2068|1438|1437,170,||||,45.46666667,9.183333333,170|1439|2068|1438|1437,Milan
media|medias,media|media's,,34,171|1445,171,median kingdom--too vague|median kingdom--too vague,NA,NA,171|1445,Media
longisland,long- island|long island|long-island,,31,172,172,,40.8,-73.3,172,Long- Island
gloucester,gloucester|glou cester,,0,173,173,"10 england, moved to 7003: 1 not in text, owenson poems, deleted; 1 not in text, cary-e history, deleted",51.87,-2.24,173,Gloucester
castellane,castel lane,,31,174,174,in France,43.8475,6.513888889,174,Castel Lane
riverstlawrence|stlawrence,river st. lawrence|st. lawrence,,35,923|175,175,|,49.5,-64.5,923|175,River St. Lawrence
richmond|richmonds,"richmond|richmond,|richmonds|richmond's",,25,176|1920,176,london: 7 moved to 7014|london,51.456,-0.301,176|1920,Richmond
nile|nilus,nile|nilus,,46,177|337,177,|,30.16666667,31.15,177|337,Nile
newjersey,new-jersey|new jersey|new jer sey,,30,178,178,,40,-74.5,178,New Jersey
madrid,madrid|madrid;,,30,179,179,,40.38333333,-3.716666667,179,Madrid
heavens,heaven's|heavens|hea vens,,30,180,180,Biblical place,NA,NA,180,Heaven
hauteville,haute ville,,30,181,181,,49.05,-1.44,181,Hauteville
vvinchester|winchester,vvinchester|winchester,,31,1745|182,182,|,51.0607,-1.3131,1745|182,Winchester
turkey|turky,turkey|turky,,37,183|601,183,|,40,33,183|601,Turkey
marseilles,marseilles,,29,184,184,,43.2964,5.37,184,Marseilles
liberia,liberia,,29,185,185,,6.5,-9.5,185,Liberia
gaul|gaule|gauls,gaul|gaul;|gaule|gaul's|gauls,,38,187|996|1191,187,||,48.85,2.35,187|996|1191,Gaul
britanny|britany|brittany,britanny|britany|brittany,,36,2448|1026|188,188,||,48,-3,2448|1026|188,Britanny
treharne,tre harne,,28,190,190,??,NA,NA,190,Treharne
seine|seines,seine|seine's,,30,191|1866,191,|,49.43388889,0.206666667,191|1866,Seine
pequest,pequest,,28,192,192,,40.82888889,-75.08305556,192,Pequest
northcarolina,north-carolina|north carolina,,28,193,193,,35.5,-80,193,North Carolina
hampstead,hampstead,,28,194,194,,51.5541,-0.1744,194,Hampstead
elysium,elysium|elysium;,,28,195,195,mythical place,NA,NA,195,Elysium
cornwal|cornwall,cornwal|cornwall|corn wall,,31,1589|196,196,|,50.4,-4.9,1589|196,Cornwall
windsor,wind sor|windsor,,27,198,198,Town that is also site to Windsor Castle,51.4791,-0.6095,198,Windsor
tower,tower,,27,199,199,"Not a place, noun - tower",NA,NA,199,Tower
ticonderoga,ticonderoga,,27,200,200,,43.84166667,-73.3875,200,Ticonderoga
sax|saxony,sax|saxony,,29,1876|201,201,|,51.02694444,13.35888889,1876|201,Saxony
ladaanna|ladauanna,lada??anna.|ladau??anna,,29,202|2139,202,"Ladaüanna: St. Lawrence River, in Huron(?)|Ladaüanna",49.5,-64.5,202|2139,Ladaüanna
hanover,hanover,,27,203,203,,52.36666667,9.716666667,203,Hanover
calcutta,calcutta|cal cutta,,27,204,204,,22.56666667,88.36666667,204,Calcutta
baltimore,bal timore|baltimore,,27,206,206,,39.28333333,-76.61666667,206,Baltimore
austria|austrias,austria|austrias|austria's,,31,207|1252,207,|,47.33333333,13.33333333,207|1252,Austria
washington|washingtoncity,washing ton|washington|washington city,,33,208|660,208,|,38.90472222,-77.01638889,208|660,Washington
stdomingo,st domingo|st. domingo,,26,209,209,,18.46666667,-69.95,209,St Domingo
seville|sevilles,seville|seville's,,30,210|1084,210,|,37.39,-5.99,210|1084,Seville
rhone,rhone,,26,211,211,,43.33083333,4.845555556,211,Rhone
orange,orange,,26,212,212,too vague,NA,NA,212,Orange
neworleans,new orleans|new or leans|new- orleans|new-orleans,,26,213,213,,29.95,-90.08,213,New Orleans
lisbon|lisbons,lisbon|lisbons|lisbon's,,30,214|1156,214,|,38.71388889,-9.139444444,214|1156,Lisbon
freetown,freetown,,26,215,215,,8.484444444,-13.23444444,215,Freetown
florida,florida,,26,216,216,,28.1,-81.6,216,Florida
charlestown,charlestown,,26,217,217,,42.37527778,-71.06444444,217,Charlestown
toulouse,toulouse,,25,218,218,,43.6045,1.444,218,Toulouse
suffex|sussex,suffex|sussex,,27,1802|219,219,|,51,0,1802|219,Sussex
lerwick,lerwick,,25,221,221,,60.155,-1.145,221,Lerwick
hartford,hartford,,25,222,222,,41.7625,-72.67416667,222,Hartford
essex,essex,,25,223,223,,51.75,0.583333333,223,Essex
ciprus|cyprus,ciprus|cyprus,,37,445|224,224,|,35,33,445|224,Cyprus
boisbelle,boisbelle,,25,225,225,Now Henrichemont,47.30361111,2.525,225,Boisbelle
vermont,vermont|vermont;,,24,226,226,,44,-72.7,226,Vermont
thebes,thebes|thebes',,22,227,227,,38.31666667,23.31666667,227,Thebes
sodom,sodom|so dom,,24,228,228,biblical place,NA,NA,228,Sodom
lancaster|lancastrias,lancaster|lancastria's,,26,230|2137,230,|,54.047,-2.801,230|2137,Lancaster
ganges,"ganges'|ganges|ganges,",,24,231,231,,25.3,83.01,231,Ganges
exeter,exeter|exe ter,,24,233,233,,50.71666667,-3.533333333,233,Exeter
eglantine|eglantinefarm,eg lantine|eglantine farm,,26,234|2315,234,|,54.462,-6.083,234|2315,Eglantine
coventgarden,covent-garden|coventgarden|covent- garden|covent garden|covent-gar den,,24,235,235,,51.512,-0.123455556,235,Covent-Garden
bolivar,bolivar,,24,236,236,"Port Bolivar, Texas",29.38083333,-94.76444444,236,Bolivar
tyre|tyrus,tyre|tyrus|tyrus',,27,238|1062,238,|,33.27083333,35.19611111,238|1062,Tyre
sothfolke|suffolk,sothfolke|suffolk|suf folk,,25,1845|239,239,|,52.16666667,1,1845|239,Suffolk
ponces,pon ces,,23,240,240,unable to identify,NA,NA,240,Ponces
norwich,norwich,,15,241,241,connecticut,41.55027778,-72.0875,241,Norwich
nashville,nashville,,23,242,242,,36.16666667,-86.78333333,242,Nashville
missouri,missouri,,23,243,243,,38.67469444,-91.83466667,243,Missouri
metz,metz,,23,244,244,,49.12027778,6.177777778,244,Metz
iordan|jordan|jordans,iordan|jordan|jordan's,,35,976|245|701,245,||,33.18666667,35.61916667,976|245|701,Jordan
hudson|hudsons|hudsonsriver,hudson|hud son|hudson's|hudson's river,,30,246|2195|980,246,||,40.69666667,-74.02833333,246|2195|980,Hudson
geneva,geneva,,23,247,247,,46.2,6.15,247,Geneva
aleppo,aleppo,,23,248,248,,36.21666667,37.16666667,248,Aleppo
warwick,warwick,,22,249,249,,52.28,-1.59,249,Warwick
redsea,red sea|red-sea,,22,250,250,,22,38,250,Red Sea
peru|peruvias,peru|peru;|peruvia's,,24,251|1974,251,|,-10,-76,251|1974,Peru
moon,moon,,22,252,252,not a place!,NA,NA,252,Moon
meudon,meudon,,22,253,253,,48.8075,2.2403,253,Meudon
meltonsbluff,melton's bluff,,22,254,254,,34.74947222,-87.21541667,254,Melton's Bluff
lowell,lowell,,22,255,255,,42.63944444,-71.31472222,255,Lowell
lexington,lex ington|lexington,,22,256,256,,38.02972222,-84.49472222,256,Lexington
helicon,helicon,,22,257,257,,40.16666667,22.48333333,257,Helicon
hampshire,hampshire,,22,258,258,,51.0577,-1.3081,258,Hampshire
edens,eden's|edens,,22,259,259,biblical place,NA,NA,259,Eden
chitor,chitor,,22,260,260,,24.88,74.63,260,Chitor
bordeaux|bourdeaux,bordeaux|bourdeaux,,36,261|392,261,|,44.83333333,-0.583333333,261|392,Bordeaux
bethlehem|bethlehems|bethlems,bethlehem|bethlehem's|bethlems|bethle'm's,,29,262|1034|2479,262,||,31.70305556,35.19555556,262|1034|2479,Bethlehem
westminster,"westminster|westminster,|westminster;",,21,263,263,,51.51222222,-0.163333333,263,Westminster
stjamesssquare,st. james's-square|st. james's square,,21,264,264,,51.50724444,-0.135297222,264,St. James's-Square
stjames|stjamess,st. james'|st. james|st. james's,,28,674|265,265,|,51.5085,-0.133,674|265,St. James'
smyrna,smyrna,,21,266,266,,38.41861111,27.13916667,266,Smyrna
rohan|rohans,rohan|rohan's,,23,267|1913,267,|,48.0692,-2.7517,267|1913,Rohan
nismes,nismes,,21,268,268,,43.838,4.361,268,Nismes
liverpool,liverpool|liver pool,,21,269,269,,53.4,-2.983333333,269,Liverpool
helle,helle,,18,270,270,3 moved to 710,NA,NA,270,Helle
gambia,gambia,,21,271,271,,13.46666667,-16.6,271,Gambia
abyssinia|aethiopia|ethiopia,abyssinia|aethiopia|ethiopia,,29,272|272|272,272,Ethiopia||,8,38,1048|1696|272,Ethiopia | Abyssinia
columbia,columbia|co lumbia,,21,274,274,,38.90472222,-77.01638889,274,Columbia
chittagong,chittagong,,21,275,275,,22.36666667,91.8,275,Chittagong
bulgaria,bulgaria,,21,276,276,,42.75,25.5,276,Bulgaria
beaufort,beaufort,,21,277,277,"This is the title of the Duke of Beaufort: I was uncertain how to classify it, as Beaufort is a Castle in Champagne, France, but not the seat of the duchy",NA,NA,277,Beaufort
acre|acres,acre|acres|acre's,,38,278|278,278,|Acre,32.92777778,35.08166667,278|329,Acre
versailles,versailles,,20,279,279,,48.8053,2.135,279,Versailles
toledo,toledo,,20,280,280,,39.85666667,-4.024444444,280,Toledo
sweden|swedens,sweden|sweden;|sweden's,,22,281|1794,281,|,63,16,281|1794,Sweden
strand,strand,,20,282,282,,51.5114,-0.119,282,Strand
raylandhall,rayland hall,,20,284,284,unable to identify,NA,NA,284,Rayland Hall
ranelagh,ranelagh,,20,285,285,,51.48722222,-0.155277778,285,Ranelagh
annapolis|portroyal,annapolis|port-royal|port royal,,24,1262|286,286,Now Annapolis Royal in Nova Scotia|Now Annapolis Royal in Nova Scotia,44.74166667,-65.51527778,1262|286,Annapolis | Port-Royal
mauritania,mauritania,,23,287,287,,20,-12,287,Mauritania
galile|galilee|gallilee,galile|galilee|gallilee,,24,2281|288|2280,288,||,32.76,35.53,2281|288|2280,Galilee
ceylon,ceylon,,20,289,289,,7,81,289,Ceylon
armenia,armenia,,20,291,291,,40,45,291,Armenia
tunbridge,tunbridge,,19,292,292,,51.1987,0.2764,292,Tunbridge
trenton,trenton,,19,293,293,,40.22374722,-74.76400278,293,Trenton
shaftsbury,shaftsbury,,19,294,294,not a place,NA,NA,294,Shaftsbury
rhodes|rodes,rhodes|rodes,,24,295|921,295,|,36.16666667,27.93333333,295|921,Rhodes
rhine,rhine,,19,296,296,,51.98166667,4.080555556,296,Rhine
prage|prague,prage|prague,,23,1102|297,297,|,50.08333333,14.41666667,1102|297,Prague
massachusettsbay,massachusetts-bay|massachusetts bay,,19,298,298,,42.375,-70.74944444,298,Massachusetts-Bay
fairfield,fair field|fairfield,,7,300,300,,41.17583333,-73.27194444,300,Fairfield
derbyshire,derbyshire|derby shire,,19,301,301,,53.13333333,-1.6,301,Derbyshire
cumberland,cumberland|cum berland,,19,302,302,,54.75,-3,302,Cumberland
castile|castiles|castilias,castile|castile's|castiles|castilia's,,24,303|1603|2407,303,||,41.38333333,-4.45,303|1603|2407,Castile
brazoria,brazoria,,19,304,304,Town in Texas,29.04722222,-95.5675,304,Brazoria
brazil,brazil,,19,305,305,,-10,-52,305,Brazil
templehouse,tem ple-house,,18,306,306,,NA,NA,306,Temple-House
slatersville,slaters ville,,18,307,307,,41.99805556,-71.5825,307,Slatersville
pharsalia|pharsalias|pharsaly,pharsalia|pharsalia's|pharsaly,,27,308|682|1972,308,||,39.3,22.38333333,308|682|1972,Pharsalia
nazareth,nazareth|naza reth|na zareth,,18,309,309,,32.70194444,35.30333333,309,Nazareth
loire,loire,,18,310,310,,47.26916667,-2.185833333,310,Loire
hibernia|hibernias,hibernia|hibernia's,,22,311|1173,311,|,53.41666667,-8,311|1173,Hibernia
birkow,bir kow,,18,312,312,Across the strait from Banjul,13.45305556,-16.5775,312,Bir Kow
berks|berkshire,berks|berkshire|berkshire;,,21,1658|313,313,|,51.41666667,-1,1658|313,Berkshire
arragon,arragon,,18,314,314,Aragon,41,-1,314,Arragon
taunton,taun ton|taunton,,17,315,315,,41.9,-71.09027778,315,Taunton
somerset,somerset,,17,316,316,,51.1,-2.9,316,Somerset
savannah,savannah,,17,317,317,,32.01666667,-81.11666667,317,Savannah
samaria,samaria|sa maria,,17,318,318,,32.14306111,35.26061944,318,Samaria
naplouse,naplouse,,17,319,319,,32.22027778,35.27888889,319,Naplouse
matanzas,matanzas,,17,320,320,,23.05111111,-81.57527778,320,Matanzas
madras,mad ras,,17,321,321,,13.08333333,80.26666667,321,Madras
lucca,lucca,,17,322,322,,43.84166667,10.50277778,322,Lucca
leyden,leyden,,17,323,323,,52.16666667,4.483333333,323,Leyden
damascus,damascus|damas cus,,17,324,324,,33.51305556,36.29194444,324,Damascus
crownpoint,crown- point|crown point,,17,325,325,,44.02916667,-73.43111111,325,Crown- Point
connecticutriver,connec ticut river|connecti cut river,,17,326,326,,41.27222222,-72.33416667,326,Connecticut River
aveyron,aveyron,,17,327,327,region in France,44.25,2.7,327,Aveyron
aetna|aetnae|aetnas|etna|etnas|mountaetna,aetna|aetnae|aetna's|etna|etnas|etna's|mount aetna,,37,328|328|328|328|328|328,328,Mount Etna|Mount Etna|Mount Etna|Mount Etna|Mount Etna|,37.755,14.995,594|2558|328|1198|1556|2051,Mount Etna
yorktown,york town|yorktown,,16,330,330,,37.23916667,-76.51055556,330,Yorktown
tiber|tibers|tyber|typer,tiber|tiber's|tibers|tyber|typer,,28,331|1067|887|1760,331,|||,41.7405,12.2334,331|1067|887|1760,Tiber
sodome,sodome,,16,332,332,biblical place,NA,NA,332,Sodome
sheffield,sheffield,,16,333,333,,53.38333333,-1.466666667,333,Sheffield
rimont,rimont,,16,334,334,not a place,NA,NA,334,Rimont
nottinghamshire,nottingham-shire|nottinghamshire,,16,335,335,,53.16666667,-1,335,Nottingham-Shire
nottingham,nottingham,,16,336,336,,52.95,-1.15,336,Nottingham
montpelier|montpellier,montpelier|montpellier|mont pellier,,25,338|562,338,|,43.6119,3.8772,338|562,Montpelier
hidepark|hideparke|hydepark|hydeparkcorner,hide-park|hide-parke|hyde park|hyde-park|hyde-park- corner|hyde park corner|hyde-park corner,,28,705|2210|339|1497,339,|||,51.50861111,-0.163611111,705|2210|339|1497,Hide-Park
guise,guise|guise;,,16,340,340,not a place!,NA,NA,340,Guise
genoa,genoa|ge noa,,16,342,342,,44.41111111,8.932777778,342,Genoa
gaza,gaza,,16,343,343,,31.41666667,34.33333333,343,Gaza
elis,elis,,16,344,344,,37.66666667,21.5,344,Elis
achaia|achaya,achaia|achaya,,26,345|345,345,Classical Greek/ Roman|Classical Greek/ Roman,NA,NA,345|528,Achaia
vaucluse,vaucluse,,15,346,346,,44,5.166666667,346,Vaucluse
tunbridgewells,tunbridge wells|tunbridge- wells|tunbridge-wells,,15,347,347,,51.132,0.263,347,Tunbridge Wells
troisrivieres,trois rivieres,,16,348,348,"Canadian town (Brooks, Maria (Gowen) - Idomen)",46.35,-72.55,348,Trois Rivieres
salisbury,salisbu ry|salisbury,,15,349,349,,51.074,-1.7936,349,Salisbury
pamphilia,pamphilia,,15,350,350,,37,31,350,Pamphilia
padua,padua|padua;,,15,351,351,,45.40638889,11.87777778,351,Padua
northriver,north- river|north river,,14,352,352,New York: 1 deleted for north river virginia bc threshhold,43.06666667,-73.61666667,352,North- River
normandy,normandy|norman dy,,15,353,353,,48.88,0.17,353,Normandy
morocco,morocco,,15,354,354,,32,-6,354,Morocco
montmorenci|montmorency,mont morenci|montmor ency|montmorency,,20,355|949,355,|,46.89083333,-71.1475,355|949,Montmorency
lincolnshire,lincolnshire|lincoln shire|lincoln-shire,,15,356,356,,53.06666667,-0.183333333,356,Lincolnshire
lapland|laplands,lapland|lap-land|lapland's,,20,357|969,357,|,65.929,16.743,357|969,Lapland
lakechamplain,lake champlain,,15,358,358,,44.53333333,-73.33333333,358,Lake Champlain
greenland|greenlands,greenland|green-land|green land|greenland's,,20,359|991,359,|,72,-40,359|991,Greenland
calais|callis,calais|calais;|callis,,17,360|2429,360,|,50.94805556,1.856388889,360|2429,Calais
broadway,broadway,,15,361,361,"These all come from Changing Scenes, set in New York",40.705,-74.01361111,361,Broadway
bedlam|bethlam|bethlem,bedlam|bed lam|bethlam|bethlem,,21,362|1657|1656,362,Bedlam is Bethlehem Royal Hospital||,51.518188,-0.088611,362|1657|1656,Bedlam
aniow|anjou,aniow|anjou,,18,1682|365,365,|City in France,47.46666667,-0.55,1682|365,Anjou
amboyna,amboyna,,15,366,366,"Now Ambon Island, Maluku Islands, Indonesia",-3.7,128.1666667,366,Amboyna
zions,zion's|zions,,14,367,367,biblical place,NA,NA,367,Zion
worcester,worcester|worc ester,,5,368,368,England,52.192,-2.22,368,Worcester
tiberias,tiberias,,14,369,369,,32.79444444,35.53333333,369,Tiberias
switzerland,switzerland,,14,370,370,,46.83333333,8.333333333,370,Switzerland
styx,styx,,14,371,371,mythical place,NA,NA,371,Styx
southsea|southseas,south-sea|south sea|south seas,,16,372|1840,372,|,0,-160,372|1840,South Sea
southamerica,south america|south-america,,14,373,373,,-15.59583333,-56.09694444,373,South America
rotterdam,rotterdam|rotter dam,,14,374,374,,51.91666667,4.5,374,Rotterdam
rosehill|rosehillberkshire,"rose-hill|rose-hill, berkshire",,16,375|1907,375,|,51.43297222,-0.786972222,375|1907,Rose-Hill
redriver,red river,,14,376,376,,31.01944444,-91.74777778,376,Red River
paradise,paradise|para dise,,14,377,377,biblical place,NA,NA,377,Paradise
nandaugong,nan-dau-gong,,14,378,378,,16.85,96.18333333,378,Nan-Dau-Gong
mediterranean|mediterransea,mediterranean|mediterran sea,,16,379|2080,379,|2 moved to 379,35,18,379|2080,Mediterranean
lincoln|lincolne|lincolneiayle,lincoln|lincolne|lincolne iayle,,20,380|1158|2117,380,||,53.23271944,-0.537661111,380|1158|2117,Lincoln
killingly,killingly,,14,381,381,,41.83138889,-71.85027778,381,Killingly
kensington,kensington|ken sington,,14,382,382,,51.5,-0.19,382,Kensington
jersey,jersey,,8,383,383,6 moved to 7005,40,-74.5,383,Jersey
gravesend,gravesend,,14,385,385,,51.4415,0.3685,385,Gravesend
foula,foula,,14,386,386,mythical place,NA,NA,386,Foula
epire|epirus,epire|epirus,,24,511|387,387,|,39.6,20.8,511|387,Epire
durham,durham,,14,388,388,"deleted 1 for durham, connecticut, which appears only in Holley, Texas",54.7761,-1.5733,388,Durham
dalmatia,dalmatia,,14,389,389,,44.1167,15.2167,389,Dalmatia
brussels,brussels|brussel's,,14,391,391,,50.85,4.35,391,Brussels
bondstreet,bond street|bond-street|bond-street.,,14,393,393,,51.50722222,-0.1275,393,Bond Street
bologna,bologna,,14,394,394,,44.5075,11.35138889,394,Bologna
blois,blois,,14,395,395,French city,47.59388889,1.328055556,395,Blois
barbadoes|barbados,barbadoes|barba does|bar bados,,17,396|1667,396,|,13.16666667,-59.55,396|1667,Barbadoes
bagdad|bagdat,bagdad|bagdat,,16,2502|397,397,now Baghdad|now Baghdad,33.33333333,44.38333333,2502|397,Bagdad
bactria,bactria,,14,398,398,Classical Greek place,36.7581,66.8989,398,Bactria
amiens,amiens,,14,399,399,city in France,49.89194444,2.298888889,399,Amiens
worms,worms,,13,400,400,,49.63194444,8.365277778,400,Worms
petersburg|stpetersburg,petersburg|st. petersburg|st. pe tersburg,,21,795|402,402,|,59.9375,30.30861111,795|402,Petersburg
sions,sions|sion's,,13,404,404,biblical place,NA,NA,404,Sions
princeton,prince ton|princeton,,13,405,405,,40.34527778,-74.65611111,405,Prince Ton
olympus,olympus|olympus',,13,406,406,mythical place,NA,NA,406,Olympus
ogle,ogle,,13,407,407,,55.101,-1.79,407,Ogle
fallsofniagara|niagara,falls of niagara.|niagara,,16,1553|408,408,|,43.0799,-79.0747,1553|408,Falls Of Niagara.
limerick,limerick,,13,409,409,,52.6653,-8.6238,409,Limerick
leghorn|legorn,leghorn|legorn,,21,410|627,410,|,43.55,10.31666667,410|627,Leghorn
languedoc,languedoc,,13,411,411,,43.66666667,3.166666667,411,Languedoc
lambeth,lambeth|lam beth,,13,412,412,,51.46021944,-0.121444444,412,Lambeth
italias,italia's,,13,413,413,,43,12,413,Italia
indus,indus,,13,415,415,,23.99444444,67.43083333,415,Indus
erin|erins,erin|erin's,,21,644|416,416,ireland|ireland,53.41666667,-8,644|416,Erin
dorchester,dorchester|dorche ster,,11,417,417,,42.31666667,-71.05,417,Dorchester
cochin,cochin,,13,418,418,,9.97,76.28,418,Cochin
clermont,clermont,,13,419,419,,45.7831,3.0824,419,Clermont
boulogne,boulogne,,13,420,420,city in France,50.72638889,1.614722222,420,Boulogne
alabama,alabama,,13,421,421,,32.7,-86.7,421,Alabama
vienna,vienna,,12,422,422,,48.2,16.36666667,422,Vienna
tigris,tigris|tigris',,12,423,423,,38.43333333,39.77277778,423,Tigris
stgiless,st. giles's,,12,424,424,,51.5143,-0.127,424,St. Giles's
somersetshire|zomersetshire,somersetshire|so mersetshire|zomersetshire,,15,425|1271,425,|,51.1,-2.9,425|1271,Somersetshire
saluzzo|saluzzos,saluzzo|saluzzo's,,14,1890|426,426,|,44.65,7.483333333,1890|426,Saluzzo
prussia,prussia,,12,427,427,,54.71666667,20.51666667,427,Prussia
pembroke,pembroke,,12,428,428,,51.67603889,-4.9158,428,Pembroke
newfoundland,newfoundland|new foundland,,12,429,429,,49,-56,429,Newfoundland
lussan,lussan,,12,430,430,,44.1539,4.3669,430,Lussan
lethe,lethe,,12,431,431,mythical place,NA,NA,431,Lethe
leicester,leicester|lei cester,,12,432,432,,52.63333333,-1.133333333,432,Leicester
lancashire,lancashire,,12,433,433,,53.8,-2.6,433,Lancashire
lacedaemon|lacedemon|lacedemons,lacedaemon|lacedemon|lacedemon's,,18,2141|434|1164,434,||,37.08194444,22.42361111,2141|434|1164,Lacedaemon
judah,judah,,12,435,435,Biblical place,NA,NA,435,Judah
hamburg|hamburgh,hamburg|hamburgh,,20,436|638,436,|,53.56527778,10.00138889,436|638,Hamburg
hague,hague,,12,437,437,,52.08333333,4.316666667,437,Hague
ginksy,ginksy,,12,438,438,does not appear in corpus csv ????,NA,NA,438,Ginksy
gilead,gilead,,12,439,439,biblical place,NA,NA,439,Gilead
fez,fez,,12,440,440,,34.03333333,-5,440,Fez
dijon,dijon,,12,442,442,,47.31666667,5.016666667,442,Dijon
comminge,comminge,,12,443,443,,43.02,0.57,443,Comminge
colorado,colorado,,12,444,444,,39,-105.5,444,Colorado
burgundy|burgundys,burgundy|burgundy's,,15,446|1623,446,|,47,4.5,446|1623,Burgundy
buckingham,buckingham|buckingham;,,12,447,447,,51.9956,-0.9868,447,Buckingham
berlin,berlin,,12,448,448,,52.51666667,13.38333333,448,Berlin
aix,aix,,12,449,449,"town of Aix-en-Provence, southern France",43.52638889,5.445555556,449,Aix
wakefield,wakefield,,11,451,451,,53.6801,-1.492,451,Wakefield
tuscany,tuscany,,11,452,452,,43.77138889,11.25416667,452,Tuscany
thrace,thrace|thrace?,,11,453,453,mythical place,NA,NA,453,Thrace
stomers,st. omer's,,11,455,455,,50.7461,2.2617,455,St. Omer's
stjamessstreet,"st. james's street|st. james's-street|st. james's street,",,11,456,456,,51.50694444,-0.139722222,456,St. James's Street
stjamesspark,st. james's park,,11,457,457,,51.50166667,-0.131944444,457,St. James's Park
smithfelde|smithfield|smithfielde|smythfelde,smithfelde|smithfield|smith field|smithfielde|smythfelde,,20,1334|458|1850|1079,458,|||,51.519,-0.102,1334|458|1850|1079,Smithfelde
roxbury,roxbury,,11,459,459,,42.325,-71.09527778,459,Roxbury
rochel|rochelle,rochel|rochelle,,13,1915|460,460,|,46.1591,-1.1517,1915|460,Rochel
peterborough,peterborough,,11,461,461,,52.58333333,-0.25,461,Peterborough
ophir,ophir|ophir-,,11,462,462,biblical place,NA,NA,462,Ophir
novascotia,nova- scotia|nova scotia|nova-scotia,,11,463,463,,45,-63,463,Nova- Scotia
nineveh,nineveh|nine veh,,11,464,464,biblical place,NA,NA,464,Nineveh
nice,nice,,11,465,465,,43.7034,7.2663,465,Nice
nauarre|navarre,nauarre|navarre,,17,466|806,466,|,42.81666667,-1.65,466|806,Nauarre
narraganset,narraganset,,11,467,467,,41.6,-71.35,467,Narraganset
mercia,mercia,,11,468,468,,52.6,-1.6,468,Mercia
maine,maine,,11,469,469,,45.5,-69,469,Maine
iberia|iberias,iberia|iberia's,,22,471|470,470,|,40.5,-4,471|470,Iberia
hertford|hertforde|hertfordshire,hertford|hert forde|hertfordshire,,21,472|1509|708,472,||,51.795,-0.078,472|1509|708,Hertford
hayti,hayti,,11,473,473,,19,-72.41666667,473,Hayti
hartfield,hartfield,,11,474,474,,51.102,0.111,474,Hartfield
ephesus,ephesus|e phesus,,11,475,475,,37.94111111,27.34194444,475,Ephesus
derby,derby,,11,476,476,,52.91666667,-1.466666667,476,Derby
chester,ches ter|chester,,11,477,477,,53.1903,-2.8916,477,Chester
carolina|carolinas,carolina|carolinas|car olinas,,14,478|1604,478,|,34.91038889,-80.04713889,478|1604,Carolina
brunswick|brunswicke,brunswick|brunswicke,,9,479|1626,479,In Germany|,52.26666667,10.51666667,479|1626,Brunswick
brandywine,brandywine,,11,480,480,battle of,39.87194444,-75.59,480,Brandywine
bradford,bradford,,11,481,481,city in England,53.8,-1.75206,481,Bradford
bexar,bexar,,11,482,482,,42.558,-70.88,482,Bexar
bennington,benning ton|bennington,,11,483,483,,42.89111111,-73.20805556,483,Bennington
bathurst,bathurst,,11,484,484,,13.45305556,-16.5775,484,Bathurst
antipodes,antipodes,,11,486,486,Southern Hemisphere?,NA,NA,486,Antipodes
antioch|antiochia,antioch|antiochia,,20,487|590,487,|Antioch,36.2,36.15,487|590,Antioch
thessalia|thessalie|thessaly,"thessalia|thessalie|thessaly|thessaly,",,13,1782|1307|488,488,||,39.6,22.2,1782|1307|488,Thessalia
tadcaster,tadcaster,,10,489,489,,53.8852,-1.262,489,Tadcaster
stokenewington,stoke newington,,10,490,490,,51.5615,-0.0731,490,Stoke Newington
siam,siam,,10,492,492,,15,101,492,Siam
scotia|scotias,scotia|scotia's,,12,1867|493,493,|,55.95305556,-3.188888889,1867|493,Scotia
schuylkill,schuylkill,,10,494,494,,39.88444444,-75.19472222,494,Schuylkill
sardis,sardis,,10,495,495,,38.48833333,28.04027778,495,Sardis
rosa,rosa,,10,496,496,title not a place,NA,NA,496,Rosa
rochester,rochester,,10,497,497,,51.3883,0.4982,497,Rochester
palgrave,palgrave,,10,498,498,,52.36298056,1.107561111,498,Palgrave
nantucket,nantucket,,10,499,499,,41.28277778,-70.09944444,499,Nantucket
mountgerizim,mount gerizim,,10,500,500,biblical place,NA,NA,500,Mount Gerizim
middlesex,middlesex|mid dlesex,,6,501,501,England. moved 2 to 7006 (prince) and 2 to 7007 (fall river),51.5,-0.416666667,501,Middlesex
louisbourg,lou isbourg|louisbourg,,10,502,502,,45.89238056,-59.98621111,502,Louisbourg
linwell,linwell,,10,503,503,,51.102,0.111,503,Linwell
lesbos,lesbos|lesbos',,10,504,504,,39.16666667,26.33333333,504,Lesbos
ibberville,ibberville,,10,506,506,,30.26,-91.35,506,Ibberville
hull,hull,,10,507,507,,53.74433333,-0.3325,507,Hull
gath,gath,,10,508,508,,31.7,34.847,508,Gath
gardens,gardens,,10,509,509,?,NA,NA,509,Gardens
fernhill,"fern-hill,",,10,510,510,,51.4318,-0.709619444,510,Fern-Hill
elizium,elizium|elizium.,,10,512,512,mythical place,NA,NA,512,Elizium
edinburg|edinburgh,edinburg|edinburgh,,12,2317|513,513,|,55.953,-3.189,2317|513,Edinburg
communipaw,communipaw,,10,515,515,,40.70861111,-74.06111111,515,Communipaw
chatham,chatham,,10,516,516,to disambiguate?,51.361,0.5362,516,Chatham
cardigan|cardiganshire,cardigan|cardiganshire|cardigan-shire,,12,517|2416,517,in Wales|in Wales,52.08417,-4.65792,517|2416,Cardigan
capecod,cape-cod|cape cod,,10,518,518,,41.68333333,-70.2,518,Cape-Cod
camden,cam den,,10,519,519,,34.36455278,-80.6139,519,Camden
cairo,cairo,,10,521,521,,30.05,31.23333333,521,Cairo
brighthelmstone|brighton,brighthelmstone|brighton|brigh ton,,18,652|522,522,|,50.84305556,-0.131388889,652|522,Brighthelmstone
bridgefoot,bridgefoot,,10,523,523,,54.648,-3.465,523,Bridgefoot
barbary,barbary,,10,524,524,,30,5,524,Barbary
ashdown,ashdown,,10,526,526,"Berkshire Downs in Berkshire, England",51.575,-1.57,526,Ashdown
zemblas,zembla's,,9,529,529,,74,56,529,Zembla
yumuri,yumuri,,9,530,530,,20.80583333,-105.2475,530,Yumuri
wye,wye,,9,531,531,,51.183,0.936,531,Wye
williamsburg,williamsburg,,9,532,532,,37.27083333,-76.70694444,532,Williamsburg
westminsterabbey|westminsterabby,westminster-abbey|westminster abbey|westminster abby,,11,533|1731,533,|,51.49944444,-0.1275,533|1731,Westminster Abbey
welbeck,welbeck,,9,534,534,,53.26215,-1.156027778,534,Welbeck
waterloo,waterloo,,9,535,535,,50.71746944,4.397911111,535,Waterloo
towerhill,tower-hill|towerhill,,9,537,537,,51.5085,-0.0782,537,Tower-Hill
tours,tours,,9,538,538,,47.3936,0.6892,538,Tours
tennesseeriver,tennessee river,,9,539,539,,37.06722222,-88.56472222,539,Tennessee River
tartary,tartary|tar tary,,9,540,540,?,NA,NA,540,Tartary
stmarys,st. mary's,,9,541,541,,13.45305556,-16.5775,541,St. Mary's
spires,spires,,9,542,542,unable to identify,NA,NA,542,Spires
servia,servia,,9,543,543,,44,21,543,Servia
sardany|sardanys|sardinia,sardany|sardany's|sardinia,,15,544|1881|1090,544,||,40,9,544|1881|1090,Sardany
pyrenees,pyrenees,,9,545,545,,42.66666667,1,545,Pyrenees
prouence|provence,prouence|provence,,11,1937|546,546,|,43.5,5.5,1937|546,Prouence
poughkeepsie,pough keepsie,,9,547,547,,41.7,-73.93,547,Poughkeepsie
park,park,,9,548,548,unable to identify,NA,NA,548,Park
ormond,ormond,,9,549,549,not a place,NA,NA,549,Ormond
newworld,new world,,9,550,550,too vague,NA,NA,550,New World
newtown,newtown,,9,551,551,,42.37361111,-71.11055556,551,Newtown
newamsterdam,new-amsterdam,,9,552,552,,40.7127,-74.0059,552,New-Amsterdam
netherlands,netherlands|nether-lands,,11,553,553,,52.31666667,5.55,553,Netherlands
negropont,negropont,,9,554,554,,38.5,24,554,Negropont
natchez,natchez,,9,555,555,,31.55444444,-91.3875,555,Natchez
nantes,nantes,,9,556,556,,47.2181,-1.5528,556,Nantes
myrtlewood,myrtle wood,,9,557,557,unable to identify,NA,NA,557,Myrtle Wood
mountzion,mount zion,,9,558,558,biblical place,NA,NA,558,Mount Zion
mountsion,mount sion,,9,559,559,biblical place,NA,NA,559,Mount Sion
mountsinai,mount sinai,,9,560,560,biblical place,NA,NA,560,Mount Sinai
morauia|moravia,morauia|moravia,,12,561|1424,561,|,49.5,17,561|1424,Morauia
marthasvineyard,martha's vineyard,,9,563,563,,41.4,-70.61666667,563,Martha's Vineyard
manchester,manchester,,9,564,564,,53.47944444,-2.245277778,564,Manchester
madeira|madeiras,madeira|madeiras|madeira's,,12,565|1456,565,|,32.75,-17,565|1456,Madeira
lisle,lisle|l'isle,,9,566,566,,44,5.166666667,566,Lisle
leucate,leucate,,9,567,567,,42.9105,3.0294,567,Leucate
kenhawa|kenhawariver,kenhawa|kenhawa river,,11,568|2157,568,|,38.83777778,-82.14277778,568|2157,Kenhawa
isleoffrance,isle of france,,9,569,569,,-20.2,57.5,569,Isle Of France
ilion|ilium|illion,ilion|ilium|illion,,15,1171|570|2188,570,||,39.9575,26.23888889,1171|570|2188,Ilion
herefordshire,herefordshire,,9,572,572,,52.0565,-2.716,572,Herefordshire
grosvenorplace|grosvenorsquare|grosvenorstreet,grosvenor place|grosvenor square|grosvenor-square|grosvenor street,,14,1522|573|2246,573,||,51.51138889,-0.151388889,1522|573|2246,Grosvenor Place
grenada,grenada,,9,574,574,,37.17805556,-3.600833333,574,Grenada
frankford|frankfort|frankfortonthemaine|frankfortuponthemaine,frank ford|frankfort|frankfort on the maine|frankfort upon the maine,,18,1542|576|1541|1540,576,|||,50.11666667,8.683333333,1542|576|1541|1540,Frankford
endor,endor,,9,577,577,biblical place,NA,NA,577,Endor
easttennessee,east tennessee,,9,578,578,,35.9,-84.1,578,East Tennessee
cranganor,cranganor,,9,579,579,,10.23376111,76.19463333,579,Cranganor
cracow,cracow,,9,580,580,,50.06138889,19.93722222,580,Cracow
corsica,corsica|corsica.,,9,581,581,,42.15,9.083333333,581,Corsica
cilicia,cilicia,,9,582,582,,37,35,582,Cilicia
breedshill|bunkerhill|bunkershill,breed's-hill|breed's hill|bunker hill|bunker-hill|bunker's-hill|bunker's hill,,20,1242|583|735,583,of bunker hill||,42.37636111,-71.06077778,1242|583|735,Breed's-Hill
buda,buda,,9,584,584,,47.46666667,19.05,584,Buda
bethel,bethel,,9,585,585,,NA,NA,585,Bethel
bayonne,bayonne,,9,586,586,,43.48333333,-1.483333333,586,Bayonne
bauaria|bavaria,bauaria|bavaria|bavaria;,,12,1662|587,587,Bavaria|,48.7775,11.43111111,1662|587,Bauaria
barwick|berwick,barwick|berwick,,16,588|736,588,Berwick-upon-Tweed|,55.771,-2.007,588|736,Barwick
augsburg,augsburg,,9,589,589,,48.36666667,10.9,589,Augsburg
andes,andes'|andes,,9,591,591,,-32,-70,591,Andes
algier|algiers,algier|algiers,,12,592|592,592,|,36.76666667,3.216666667,1692|592,Algier
agen,agen,,9,593,593,town in France,44.205,0.621111111,593,Agen
zainsville,zainsville,,8,595,595,,39.94611111,-82.01222222,595,Zainsville
wittemberg,wittemberg,,8,596,596,,51.8671,12.6484,596,Wittemberg
westphalia,westphalia,,7,597,597,Moved 1 to 8003,51.30845833,9.499611111,597,Westphalia
vesuvius,vesuvius|vesuvius',,8,598,598,,40.81666667,14.43333333,598,Vesuvius
tyburn,tyburn,,8,599,599,,51.51333333,-0.160277778,599,Tyburn
twickenham|twicknham,twickenham|twick'nham,,10,600|1763,600,|,51.449,-0.337,600|1763,Twickenham
tow,tow,,8,602,602,?? not showing up at all in my corpus master,NA,NA,602,Tow
thessalonica,thessalonica,,8,603,603,,40.65,22.9,603,Thessalonica
terreirodepassa,terreiro de passa,,8,604,604,"Vaguely means ""yard""; actual setting by Centlivre is put as Scene Lisbon",38.71388889,-9.139444444,604,Terreiro De Passa
stmaura,st maura,,8,605,605,,38.71666667,20.65,605,St Maura
southampton,southamp ton|southampton,,8,606,606,,50.9,-1.4,606,Southampton
sinai,sinai,,8,607,607,biblical place,NA,NA,607,Sinai
shushan,shushan,,8,609,609,,32.19055556,48.25777778,609,Shushan
sheba,sheba,,8,610,610,biblical place,NA,NA,610,Sheba
placeroyale,place royale,,8,611,611,,48.86333333,2.336944444,611,Place Royale
phaerea,phaerea,,8,612,612,fictional place?,NA,NA,612,Phaerea
pequodharbour,pequod har bour,,8,614,614,,41.3125,-72.0804,614,Pequod Harbour
penobscot,penobscot,,8,615,615,,44.44,-68.83,615,Penobscot
parnassushill,parnassus hill|parnassus' hill,,8,616,616,mythical place,NA,NA,616,Parnassus Hill
pantaleria,pantaleria,,8,617,617,,36.83333333,11.95,617,Pantaleria
orrery,orrery,,8,618,618,not a place,NA,NA,618,Orrery
nuremberg,nuremberg,,8,619,619,,49.45,11.08333333,619,Nuremberg
north,north,,8,620,620,too vague,NA,NA,620,North
ninivie,ninivie,,8,621,621,biblical place,NA,NA,621,Ninivie
newnetherlands,new-netherlands,,8,622,622,,40.7127,-74.0059,622,New Netherlands
narbonne,narbonne,,8,623,623,,43.1836,3.0042,623,Narbonne
mountsterling,mount sterl ing,,8,624,624,,38.05666667,-83.94444444,624,Mount Sterling
mantua,mantua,,8,625,625,,45.15638889,10.79166667,625,Mantua
loraine|lorrain|lorraine,loraine|lorrain|lorraine,,13,2106|626|1465,626,||,49,6,2106|626|1465,Loraine
kingsbench,king's bench|kings- bench,,8,628,628,,51.49916667,-0.124722222,628,King's Bench
kew,kew,,8,629,629,,51.4837,-0.278,629,Kew
kamaraskas,kamaraskas,,8,630,630,kamouraska islands,47.56666667,-69.86666667,630,Kamaraskas
jamestown,james town|jamestown,,8,631,631,,37.20916667,-76.7775,631,Jamestown
isleofwight,isle of wight,,8,632,632,,50.66666667,-1.266666667,632,Isle Of Wight
hermon,hermon,,8,633,633,Biblical place,NA,NA,633,Hermon
hereford,hereford|hereford;,,8,634,634,,52.0565,-2.716,634,Hereford
heavn,heav'n,,8,635,635,Biblical place,NA,NA,635,Heav'n
heauens,heauens|hea uens,,8,636,636,Biblical place,NA,NA,636,Heauens
havana,havana,,8,637,637,,23.13333333,-82.38333333,637,Havana
guinea,guinea,,8,639,639,,11,-10,639,Guinea
glocester,glocester,,0,640,640,"england 5, moved to 7003",51.87,-2.24,640,Glocester
gethsemane,gethsemane,,8,641,641,biblical place,NA,NA,641,Gethsemane
galvestonbay,galveston bay,,8,642,642,,29.28111111,-94.82583333,642,Galveston Bay
falmouth,falmouth,,8,643,643,,41.55138889,-70.61527778,643,Falmouth
dieppe,dieppe,,8,645,645,,49.92,1.08,645,Dieppe
croton,croton,,8,646,646,,41.20416667,-73.88611111,646,Croton
cromer,cromer,,8,647,647,,52.931,1.302,647,Cromer
crete,crete,,8,648,648,,35.21,24.91,648,Crete
columbias,columbia's,,8,649,649,,38.90472222,-77.01638889,649,Columbia
christendom,christendom.|christendom,,8,650,650,,NA,NA,650,Christendom.
chesapeak|chesapeakebay,chesapeak|chesapeake bay,,10,651|2384,651,|,36.99583333,-75.95944444,651|2384,Chesapeak
boulevards,boulevards,,8,654,654,!,NA,NA,654,Boulevards
berri,berri,,8,655,655,Berry region,47.08444444,2.396388889,655,Berri
bencoolen,bencoolen,,8,656,656,"British Bencoolen, Sumatra",-3.795555556,102.2591667,656,Bencoolen
angouleme,an gouleme|angouleme,,8,658,658,town in France,45.65,0.166666667,658,An Gouleme
wellington,wellington,,7,659,659,Kilham went to Africa; there's also explicit mention of palm trees...,-33.63333333,18.98333333,659,Wellington
venus,venus,,7,661,661,Not a place?,NA,NA,661,Venus
utrecht,utrecht,,7,662,662,,40.61,-74.00333333,662,Utrecht
tweed|tweeds,tweed|tweed's,,9,663|1764,663,|,55.7652,-1.9909,663|1764,Tweed
trinityriver,trinity river,,7,665,665,,29.74305556,-94.70333333,665,Trinity River
tottenham,totten ham,,7,666,666,,51.605,-0.058,666,Tottenham
tirzah,tirzah,,7,667,667,technically biblical place but we know where it is,32.28738611,35.33780278,667,Tirzah
thoulouse,thoulouse,,7,668,668,,43.6045,1.444,668,Thoulouse
thompson,thompson,,7,669,669,,41.98444444,-71.87777778,669,Thompson
tangier,tangier,,7,670,670,,35.76666667,-5.8,670,Tangier
syracuse,syracuse|sy racuse,,7,671,671,,37.08333333,15.28333333,671,Syracuse
surry,surry,,7,672,672,,51.25,-0.416666667,672,Surry
stratford,strat ford|stratford,,7,673,673,,41.20444444,-73.12972222,673,Stratford
snowden|snowdens|snowdon,snowden|snowden's|snowdon,,12,1849|675|1333,675,||,53.06849722,-4.076230556,1849|675|1333,Snowden
sevres,sevres,,7,676,676,,48.8239,2.2117,676,Sevres
scythia,scythia,,7,677,677,,48.83641667,58.43038889,677,Scythia
saintmonica,saint monica,,7,678,678,unable to identify,NA,NA,678,Saint Monica
rehoboth,rehoboth,,7,679,679,biblical place,NA,NA,679,Rehoboth
provinceofmaine,province of maine,,7,680,680,,45.5,-69,680,Province Of Maine
piscataqua,piscata qua,,7,681,681,,43.05611111,-70.70305556,681,Piscataqua
pelew,pelew,,7,683,683,,7.5,134.5,683,Pelew
oozoff,oozoff,,7,684,684,fictional place,NA,NA,684,Oozoff
norway|norways,norway|nor way|norway's,,9,685|2014,685,|,61,8,685|2014,Norway
newark,newark,,7,686,686,,40.72,-74.17,686,Newark
murray,murray,,7,687,687,earl of: formerly kingdom of Moray,57.41666667,-3.25,687,Murray
mounthope,mount-hope|mount hope,,7,688,688,,41.67388889,-71.24,688,Mount-Hope
moulton,moulton,,7,689,689,,34.48230556,-87.28562222,689,Moulton
montcalm,montcalm,,7,690,690,not a place!,NA,NA,690,Montcalm
monmouth,mon mouth|monmouth,,4,691,691,3 moved to 7007,51.81,-2.72,691,Monmouth
messenia,mes senia|messenia,,7,692,692,,37.16666667,22,692,Messenia
mall,mall,,7,694,694,,51.50416667,-0.135277778,694,Mall
malabar,malabar,,7,695,695,,-6.75,107.5,695,Malabar
madison,madison,,7,696,696,,34.76583333,-86.55777778,696,Madison
lyonois,lyonois,,7,697,697,,45.75,4.83,697,Lyonois
lidia|lydia,lidia|lydia,,11,1159|698,698,|,40,30,1159|698,Lidia
libanus,libanus|libanus;,,7,699,699,,34.3,36.11666667,699,Libanus
judahs,judah's,,7,700,700,Biblical place,NA,NA,700,Judah
japan,japan,,7,702,702,,35,136,702,Japan
italia,italia,,7,703,703,,43,12,703,Italia
howlandsferry,howland's ferry,,7,704,704,,41.62638889,-71.21111111,704,Howland's Ferry
hexham|hexhams,hexham|hexham's,,9,2212|706,706,|,54.971,-2.101,2212|706,Hexham
hesse,hesse,,7,707,707,,50.66611111,8.591111111,707,Hesse
helvetias,helvetia's,,7,709,709,,46.83333333,8.333333333,709,Helvetia
hellespont|hellispont,hellespont|hellispont,,17,710|983,710,5 added from helle and helle's|,40.2,26.4,710|983,Hellespont
hel,hel,,7,711,711,Biblical place,NA,NA,711,Hel
haymarket,haymarket|hay-market,,7,712,712,,51.50833333,-0.131111111,712,Haymarket
havre,havre,,7,713,713,,49.49,0.1,713,Havre
habul,habul,,7,714,714,fictional place,NA,NA,714,Habul
guamacaro,guamacaro,,7,715,715,,22.9547,-81.4118,715,Guamacaro
greenwich,greenwich,,5,716,716,,51.48,0,716,Greenwich
gerizim,gerizim,,7,717,717,,32.19944444,35.27277778,717,Gerizim
elyzium,elyzium|elyzium.,,7,718,718,mythical place,NA,NA,718,Elyzium
edom,edom,,7,719,719,biblical place,NA,NA,719,Edom
duxbury,duxbury,,7,720,720,,42.04166667,-70.67277778,720,Duxbury
delphos,delphos,,7,721,721,,37.39333333,25.27111111,721,Delphos
delos,delos,,7,722,722,,37.39333333,25.27111111,722,Delos
dedham,dedham,,7,723,723,,42.24166667,-71.16666667,723,Dedham
cuscowilla,cuscowilla,,7,724,724,,29.50638889,-82.28194444,724,Cuscowilla
cork,cork,,7,725,725,,51.89722222,-8.47,725,Cork
cordova,cordova,,7,726,726,,37.88450556,-4.779569444,726,Cordova
cheape|cheapside,"cheape|cheapside|cheap-side|cheapside,",,11,1227|727,727,apparently cheapside|,51.5141,-0.0937,1227|727,Cheape
charlotte|charlottee,charlotte|char lottee,,12,1020|728,728,|,35.22694444,-80.84333333,1020|728,Charlotte
cesarea|cesaria,cesarea|cesaria,,11,729|1231,729,In Israel|,32.50277778,34.90555556,729|1231,Cesarea
cape,cape,,7,730,730,?,NA,NA,730,Cape
candia|candy,candia|candy,,13,731|857,731,|,35.33333333,25.13333333,731|857,Candia
candi,candi,,7,732,732,,7.296388889,80.635,732,Candi
cambray,cambray,,7,734,734,,50.17666667,3.235555556,734,Cambray
belgia|belgium,belgia|belgium,,9,737|2488,737,|,50.83333333,4,737|2488,Belgia
assadid,assadid,,7,738,738,Fictional place,NA,NA,738,Assadid
arkansas|arkansasterritory,arkansas|arkansas territory,,9,739|2521,739,|,34.8,-92.2,739|2521,Arkansas
actian|actium,actian|actium,,9,742|742,742,Classical Roman|Classical Roman,38.953,20.768,2561|742,Actian
abidus|abydos,abidus|abydos|abydo's,,10,743|743,743,"Mythology, Greek|Mythology, Greek",40.19527778,26.405,1700|743,Abidus
wilts|wiltshire,wilts|wiltshire|wilt shire,,8,1721|744,744,Tagged in Benger's Geniad; context is Wiltshire|,51.33333333,-1.916666667,1721|744,Wilts
whiteplains,white plains|whiteplains,,6,745,745,,41.04,-73.77861111,745,White Plains
weymouth,weymouth,,6,746,746,,42.22083333,-70.94027778,746,Weymouth
westminsterhall,westminster- hall|westminster-hall|westminster hall,,6,747,747,,51.49916667,-0.124722222,747,Westminster Hall
vienne,vienne,,6,748,748,,45.5242,4.8781,748,Vienne
vauxhall,vauxhall|vaux- hall,,6,749,749,,51.4903,-0.1193,749,Vauxhall
valleyforge,valley forge,,6,750,750,,40.09694444,-75.43916667,750,Valley Forge
tyne,tyne,,6,751,751,,55.01027778,-1.418888889,751,Tyne
tuilleries|tuillerys,tuilleries|tuillerys,,8,752|1768,752,|,48.86222222,2.3325,752|1768,Tuilleries
tripoli,tripoli,,6,753,753,,34.43333333,35.85,753,Tripoli
transiluania,transiluania,,6,754,754,,46.76666667,23.58333333,754,Transiluania
toulon,toulon,,6,755,755,,43.13,5.92,755,Toulon
torrington,torrington,,6,756,756,,50.953,-4.141,756,Torrington
tiverton,tiverton,,6,757,757,,50.903,-3.488,757,Tiverton
terrierodepassa,terriero de passa,,6,758,758,"This is a typo, above ""terreiro"" is correct",38.71388889,-9.139444444,758,Terriero De Passa
tenedos,tenedos,,6,759,759,,39.82194444,26.02888889,759,Tenedos
temple,temple,,6,760,760,not a place; getting mixed up with the nouns after cross-checking the corpus and wb,NA,NA,760,Temple
tay,tay,,6,761,761,,56.355,-3.298333333,761,Tay
susha|sushan|suson,susha|sushan|suson,,10,1799|762|1798,762,||,32.19055556,48.25777778,1799|762|1798,Susha
surinam,surinam,,6,763,763,,5.833333333,-55.16666667,763,Surinam
summatra,summatra,,6,764,764,,0,102,764,Summatra
stlouis,st. louis,,4,765,765,in quebec. 2 moved to 7016,45.85,-72.98333333,765,St. Louis
stjohns|stjuans,st. john's|st. juan's,,8,766|1819,766,|,47.56138889,-52.7125,766|1819,St. John's
stillwater,still water|stillwater,,6,767,767,,42.96666667,-73.68333333,767,Stillwater
stcloud,st. cloud,,6,768,768,,48.84,2.22,768,St. Cloud
stamford,stamford,,4,769,769,2 moved to 7015,52.656,-0.484,769,Stamford
staffordshire,stafford-shire|staffordshire,,6,770,770,,52.83333333,-2,770,Stafford-Shire
skiddaw|skiddaws,skiddaw|skiddaw!|skiddaw's,,10,772|1080,772,|,54.647,-3.146,772|1080,Skiddaw
sichem,sichem,,6,774,774,biblical place,NA,NA,774,Sichem
siberia,siberia,,6,775,775,,60,105,775,Siberia
shropshire,shropshire,,6,776,776,,52.61666667,-2.716666667,776,Shropshire
severn|severns,severn|severn's,,8,777|1862,777,|,52.49346389,-3.734577778,777|1862,Severn
selesia,selesia,,6,778,778,,51.6,17.2,778,Selesia
sedgewood,sedgewood,,6,779,779,unable to identify,NA,NA,779,Sedgewood
scarborough,scarborough,,6,780,780,,54.287,-0.388,780,Scarborough
savoy,savoy,,6,781,781,,45.07916667,7.676111111,781,Savoy
sauoy,sauoy,,6,782,782,,45.07916667,7.676111111,782,Sauoy
sapheta,sapheta,,6,783,783,unable to identify,NA,NA,783,Sapheta
samos,samos,,6,784,784,,37.75,26.83333333,784,Samos
salonichi,salonichi,,6,785,785,,40.65,22.9,785,Salonichi
salems,salem's,,6,786,786,short for jerusalem,31.78333333,35.21666667,786,Salem
sabine,sabine,,6,787,787,,29.98555556,-93.79055556,787,Sabine
ruederivoli,rue de rivoli,,6,788,788,,48.85691667,2.353672222,788,Rue De Rivoli
romagnecourts,romagne court's,,6,789,789,,44.75,11,789,Romagne Court
powis,powis,,6,790,790,,52.3,-3.416666667,790,Powis
pomfret,pomfret,,6,791,791,,53.69555556,-1.303888889,791,Pomfret
pointlevi,point levi,,6,792,792,,46.8,-71.18333333,792,Point Levi
pittsburg,pittsburg|pitts burg,,6,793,793,,40.43972222,-79.97638889,793,Pittsburg
pisa,pisa,,6,794,794,,43.71666667,10.4,794,Pisa
pembrook,pembrook,,6,796,796,,51.67603889,-4.9158,796,Pembrook
pegue,pegue,,6,797,797,,17.33333333,96.48333333,797,Pegue
palmyra,palmyra,,6,798,798,,34.55138889,38.26805556,798,Palmyra
palatinate,palatinate,,6,799,799,,49.43333333,7.766666667,799,Palatinate
ossa,ossa,,6,800,800,unable to identify,NA,NA,800,Ossa
oldengland,old england,,6,801,801,,51.5,-0.116666667,801,Old England
northamptonshire,northamptonshire|northampton shire,,6,802,802,,52.28333333,-0.833333333,802,Northamptonshire
northampton,northampton,,5,803,803,1 for MA deleted bc threshhold,52.230375,-0.893752778,803,Northampton
neuces,neuces,,6,805,805,,27.74,-97.52,805,Neuces
milford,milford|mil ford,,6,807,807,,51.71418056,-5.042738889,807,Milford
michigan,michigan,,6,808,808,,44,-85,808,Michigan
mesopotamia,mesopotamia,,6,809,809,,32.979,44.33580556,809,Mesopotamia
margate,margate,,6,810,810,,51.385,1.3838,810,Margate
mansfield,mansfield,,6,811,811,,51.59416667,11.45472222,811,Mansfield
madisoncounty,madison county,,6,812,812,,34.76583333,-86.55777778,812,Madison County
lycia,lycia,,6,813,813,,36.73333333,29.9,813,Lycia
lowcountries,low-countries|low countries,,6,814,814,,52.31666667,5.55,814,Low-Countries
lockets,lockets|locket's,,6,816,816,unable to identify,NA,NA,816,Locket
libia|libyas|lybia|lybias,libia|libya's|lybia|lybia's,,13,2120|817|1462|2099,817,|||,27,17,2120|817|1462|2099,Libia
lepanto,lepanto,,6,818,818,,38.25,21.25,818,Lepanto
lennox,lennox,,6,819,819,,55.974,-4.206,819,Lennox
lemnos,lemnos,,6,820,820,,39.91666667,25.25,820,Lemnos
leeds,leeds,,6,821,821,,53.79972222,-1.549166667,821,Leeds
landshipping,landshipping,,6,822,822,,51.76927778,-4.882655556,822,Landshipping
kambet,kambet,,6,823,823,unable to identify,NA,NA,823,Kambet
jaffa,jaffa,,6,824,824,,32.05222222,34.75305556,824,Jaffa
iuda,iuda,,6,825,825,Biblical place,NA,NA,825,Iuda
ister,ister,,6,826,826,,45.2175,29.76138889,826,Ister
iernes,ierne's,,6,827,827,,53.41666667,-8,827,Ierne
ida|idas,ida|ida's,,8,2190|828,828,|,39.7,26.83333333,2190|828,Ida
iambolly,iambolly,,6,829,829,,41.2,25,829,Iambolly
hispaniola,hispaniola,,6,830,830,,19,-71,830,Hispaniola
halifax,halifax,,6,831,831,,44.64777778,-63.57138889,831,Halifax
hackney,hackney,,6,832,832,,51.55,-0.058333333,832,Hackney
glamorganshire,glamorganshire,,6,834,834,,51.66666667,-3.666666667,834,Glamorganshire
germantown,ger mantown|germantown,,6,835,835,,39.18333333,-77.26666667,835,Germantown
garonne,garonne,,6,836,836,,45.04138889,-0.606666667,836,Garonne
franconia,franconia,,6,837,837,,49.816,10.865,837,Franconia
fortofsassacus,fort of sassacus,,6,838,838,site of mystic massacre,41.3627,-71.978,838,Fort Of Sassacus
east,east,,6,839,839,too vague,NA,NA,839,East
dunkirk,dunkirk,,6,840,840,,51.0383,2.3775,840,Dunkirk
drurylane,drury- lane|drury lane|drury-lane,,6,841,841,,51.515,-0.122777778,841,Drury- Lane
dorset,dorset,,6,842,842,,50.8,-2.3,842,Dorset
dessau,dessau,,6,844,844,,51.83333333,12.25,844,Dessau
concord,concord,,6,845,845,,42.46027778,-71.34944444,845,Concord
coloradoriver,colorado river,,6,846,846,,31.9,-114.9508333,846,Colorado River
coahuila,coahuila,,6,847,847,,27.3,-102.05,847,Coahuila
chesterfield,chesterfield,,6,848,848,,53.23583333,-1.4275,848,Chesterfield
chelsea,chelsea,,6,849,849,,51.4875,-0.1684,849,Chelsea
charingcross,charing-cross,,6,850,850,,51.5073,-0.12755,850,Charing-Cross
celicia,celicia,,6,851,851,,37,35.5,851,Celicia
caucasus,caucasus,,6,852,852,,42.26111111,44.12111111,852,Caucasus
castlehaven,castlehaven|castle-haven,,6,853,853,In Ireland ,51.53555556,-9.198333333,853,Castlehaven
carlorainecastle,carloraine castle,,6,854,854,"apparently a corruption of Coleraine, but this is just a guess",55.1325,-6.677,854,Carloraine Castle
capeofgoodhope,cape of good hope,,6,855,855,,-34.35805556,18.47194444,855,Cape Of Good Hope
canebrakecreek|caney,cane-brake creek|caney,,8,2422|856,856,"in Sargent, Texas|in Sargent, Texas",28.835,-95.66472222,2422|856,Cane-Brake Creek
canaans,ca naans|canaans|canaan's,,6,858,858,biblical place,NA,NA,858,Canaan
britishwestindies,british west indies,,6,860,860,,24,-71,860,British West Indies
bridewell,bridewell|bride-well,,6,862,862,,51.51179444,-0.105758333,862,Bridewell
bourbon,bourbon,,6,863,863,Not a place!,NA,NA,863,Bourbon
biscay,biscay,,6,864,864,,45.5,-4.333333333,864,Biscay
bedford,bedford,,6,865,865,England: 1 Bedford Mass. deleted bc threshhold,52.1337,-0.4577,865,Bedford
beauvais,beauvais,,6,866,866,city in France,49.43027778,2.095277778,866,Beauvais
batavia,batavia,,5,867,867,,52.31666667,5.55,867,Batavia
basil|basle,basil|basle,,11,1038|868,868,|,47.56666667,7.6,1038|868,Basil
barcelona,barcelona,,6,869,869,,41.38333333,2.183333333,869,Barcelona
austinscolony,austin's colony,,6,870,870,now Texas,31.9686,-99.9018,870,Austin's Colony
augusta|augustas,augusta|augusta's,,9,871|1672,871,"Augusta, Maine; Augusta, Georgia; others|Augusta, Maine; Augusta, Georgia; others",NA,NA,871|1672,Augusta
attica,attica|attica;,,6,872,872,"Athens, Greece",37.96666667,23.71666667,872,Attica
arundel,arundel,,6,874,874,Town in England,50.85439,-0.5539,874,Arundel
arun|aruna|aruns,arun|aruna|arun's,,14,875|1675|1043,875,"river in West Sussex, England|river in West Sussex, England|river in West Sussex, England",50.80138889,-0.541944444,875|1675|1043,Arun
andover,andover,,6,876,876,town in Massachusetts,42.65833333,-71.1375,876,Andover
andalusia|andalusias,andalusia|andalusia's,,9,877|1685,877,|,37.38333333,-5.983333333,877|1685,Andalusia
windsorforest|windsors,windsor forest|windsor's,,7,879|1718,879,|,51.43916667,-0.624722222,879|1718,Windsor Forest
westpoint,west-point|west point,,5,880,880,,41.393,-73.958,880,West-Point
wertenberg|wertenberge,wertenberg|wertenberge,,8,1284|881,881,|,48.78333333,9.183333333,1284|881,Wertenberg
wells,wells,,5,882,882,,43.32027778,-70.61166667,882,Wells
waldens,walden's,,5,883,883,,52.022,0.243,883,Walden
valois,valois,,5,884,884,,49.2358,2.89,884,Valois
ulster,ulster,,5,885,885,,41.89,-74.26,885,Ulster
tygris,tygris|tygris',,5,886,886,,38.43333333,39.77277778,886,Tygris
tunis,tunis|tunis',,5,888,888,,36.80638889,10.18166667,888,Tunis
tripoly,tripoly,,5,889,889,,34.43333333,35.85,889,Tripoly
trinidad,trinidad,,5,890,890,,10.46055556,-61.24861111,890,Trinidad
trani,trani,,5,891,891,,41.26666667,16.41666667,891,Trani
thunderland,thunderland,,5,892,892,fictional place,NA,NA,892,Thunderland
thermopylae,thermopylae,,5,893,893,,38.80527778,22.56277778,893,Thermopylae
templebar,temple-bar|temple bar|temple- bar,,5,894,894,,51.51361111,-0.111944444,894,Temple-Bar
tartarus,tartarus,,5,895,895,mythical place,NA,NA,895,Tartarus
tarsus,tarsus,,5,896,896,,36.91666667,34.89555556,896,Tarsus
swansey,swansey,,5,897,897,,41.74805556,-71.19027778,897,Swansey
strombolli,strombolli,,5,898,898,,38.79388889,15.21111111,898,Strombolli
strasburg,strasburg,,5,899,899,,53.5,13.75,899,Strasburg
sthelena,st. helena,,5,900,900,,-15.95,-5.716666667,900,St. Helena
stgermains,st. germains|st. ger mains,,5,901,901,,50.396,-4.31,901,St. Germains
stchristophers,st. christophers|st christophers|st. christopher's,,5,902,902,,17.25,-62.66666667,902,St. Christophers
stcharles,st. charles,,5,903,903,,46.842,-71.342,903,St. Charles
stafford,stafford,,5,904,904,,52.83333333,-2,904,Stafford
springfield,springfield,,5,905,905,,40.69789722,-74.33451944,905,Springfield
southwark|southwarke,southwark|south wark|southwarke,,7,906|1839,906,|,51.4988,-0.0901,906|1839,Southwark
southwales,south wales,,5,907,907,,51.68333333,-3.383333333,907,South Wales
sio,sio,,5,908,908,unable to identify,NA,NA,908,Sio
shwaydoung,shway doung,,5,909,909,,18.29436111,95.34413889,909,Shway Doung
shinar,shinar,,5,910,910,biblical place,NA,NA,910,Shinar
sestos,sestos,,5,911,911,,40.21666667,26.38333333,911,Sestos
serampore,serampore,,5,912,912,,22.75,88.34,912,Serampore
scituate,scituate,,5,913,913,,42.19583333,-70.72638889,913,Scituate
saugus,saugus,,5,914,914,,42.46472222,-71.01055556,914,Saugus
saturn,saturn,,5,915,915,not a place,NA,NA,915,Saturn
saragossas,saragossa's,,5,916,916,,41.65,-0.883333333,916,Saragossa
sansaba,san saba,,5,917,917,,31.19527778,-98.725,917,San Saba
salency,salency,,5,918,918,,49.5886,3.0511,918,Salency
ross,ross,,5,920,920,,51.914,-2.587,920,Ross
rochefort,rochefort,,5,922,922,,45.94741667,-0.972611111,922,Rochefort
rheims,rheims,,5,924,924,,49.2628,4.0347,924,Rheims
pyee,pyee,,5,925,925,,18.81666667,95.21666667,925,Pyee
portland,portland|port land,,5,926,926,,NA,NA,926,Portland
placedebellecour,place de belle cour,,5,927,927,,45.7575,4.832222222,927,Place De Belle Cour
pindus|pindusmount,pindus|pindus'|pindus' mount,,7,928|1962,928,|,40.08888889,20.92527778,928|1962,Pindus
phenicia,phenicia,,5,929,929,,34.12361111,35.65111111,929,Phenicia
pescara,pescara,,5,930,930,,42.46388889,14.21416667,930,Pescara
perpignan,perpignan,,5,931,931,,42.6986,2.8956,931,Perpignan
pelion,pelion,,5,932,932,,39.43861111,23.04638889,932,Pelion
pehatconk,pehatconk,,5,933,933,,40.63648333,-75.17490556,933,Pehatconk
paradice,paradice,,5,934,934,biblical place,NA,NA,934,Paradice
palermo,palermo,,5,935,935,,38.11666667,13.36666667,935,Palermo
novazembla,nova zembla|nova-zembla,,5,936,936,,74,56,936,Nova Zembla
northwales,north wales,,5,937,937,,52.937,-3.659,937,North Wales
newton,newton,,5,939,939,,42.33694444,-71.20972222,939,Newton
newforest,new forest,,5,940,940,,50.86666667,-1.566666667,940,New Forest
natick,natick,,5,942,942,,42.28333333,-71.35,942,Natick
narragansetbay,narra ganset-bay|narraganset bay,,5,943,943,,41.6,-71.35,943,Narraganset-Bay
nacogdoches,nacogdoches,,5,944,944,,31.60888889,-94.65083333,944,Nacogdoches
mountgilead,mount gilead,,5,945,945,biblical place,NA,NA,945,Mount Gilead
mountcarmel,mount carmel,,5,946,946,biblical place,NA,NA,946,Mount Carmel
moscow,moscow,,5,947,947,,55.75,37.61666667,947,Moscow
morringtoncastle,mor rington castle,,5,948,948,,53.5052,-6.7531,948,Morrington Castle
mona,mona,,5,950,950,,53.28333333,-4.333333333,950,Mona
mitylene,mitylene,,5,951,951,,39.1,26.55,951,Mitylene
metelin,metelin,,5,952,952,,37.16666667,22,952,Metelin
mecca|meccas,mecca|mec ca|mecca's,,7,953|2083,953,|,21.41666667,39.81666667,953|2083,Mecca
mazarine,mazarine,,5,954,954,title-not a place,NA,NA,954,Mazarine
matagorda,matagorda,,5,955,955,,28.69083333,-95.9675,955,Matagorda
marmande,marmande,,5,956,956,,44.5,0.17,956,Marmande
marlborough,marlbo rough|marlborough,,5,957,957,,51.42,-1.73,957,Marlbo Rough
maidenlane,maiden- lane,,5,958,958,,40.70743056,-74.007675,958,Maiden Lane
loudouncastle,loudoun castle,,5,959,959,,55.61061111,-4.372788889,959,Loudoun Castle
lorette,lorette,,5,960,960,,45.5128,4.5819,960,Lorette
lombardy,lombardy,,5,961,961,,45.58555556,9.930277778,961,Lombardy
lithuania,lithuania,,5,962,962,,55,24,962,Lithuania
lincolnsinn|lincolnsinnfields,lincolns-inn|lincolns inn|lincoln's-inn|lincoln's inn fields|lincoln's-inn fields|lincoln's-inn- fields,,9,963|1157,963,|,51.5161,-0.1166,963|1157,Lincolns-Inn
lima,lima,,5,964,964,,-12.04333333,-77.02833333,964,Lima
lemburg,lemburg,,5,965,965,,49.83,24.01416667,965,Lemburg
leicestershire,leicester shire|leicestershire,,5,966,966,,52.71666667,-1.183333333,966,Leicestershire
laplata,la plata,,5,968,968,,-34.92111111,-57.95444444,968,La Plata
labaca,la baca,,5,970,970,,28.61555556,-96.62972222,970,La Baca
kedar,kedar,,5,971,971,Biblical place,NA,NA,971,Kedar
jehoshaphat,jehoshaphat|je hoshaphat,,5,972,972,Biblical place,NA,NA,972,Jehoshaphat
jafna,jafna,,5,973,973,,9.664722222,80.01666667,973,Jafna
islington,islington|isling ton,,5,975,975,,51.544,-0.1027,975,Islington
inchdorrock|inchdorrocks,inchdorrock|inchdorrock's,,7,977|2186,977,|,57.48333333,-4.233333333,977|2186,Inchdorrock
huntington,huntington,,5,978,978,,52.3364,-0.1717,978,Huntington
huntingdon,huntingdon,,5,979,979,,52.3364,-0.1717,979,Huntingdon
holborn,holborn,,5,981,981,,51.5172,-0.1182,981,Holborn
hieres|hierico,hieres|hierico,,7,982|2209,982,|,45.7983,5.2947,982|2209,Hieres
hanoversquare,"hanover-square|hanover-square,|hanover- square",,5,984,984,,51.51388889,-0.144166667,984,Hanover-Square
hamiltonplace,hamilton-place,,5,985,985,,51.50405556,-0.150055556,985,Hamilton-Place
hamilton,hamilton,,5,986,986,,51.50405556,-0.150055556,986,Hamilton
hamborough,hamborough,,5,987,987,,51.5406,0.0017,987,Hamborough
gulfofmexico,gulf of mexico,,5,988,988,,25,-90,988,Gulf Of Mexico
guadaloupe|guadalupe|guadaluperivers,guadaloupe|guadalupe|guadalupe rivers,,10,1521|989|2243,989,||,16.25,-61.58333333,1521|989|2243,Guadaloupe
gretnagreen,gretna green|gretna-green,,5,990,990,,55.002,-3.066,990,Gretna Green
gloster,gloster,,0,993,993,"england, 5, moved to 7003",51.87,-2.24,993,Gloster
gibraltar|gibralter,gib raltar|gibraltar|gibralter,,8,994|1530,994,|,36.13166667,-5.351666667,994|1530,Gibraltar
fortwashington,fort- washington,,5,997,997,,40.85277778,-73.93805556,997,Fort- Washington
fontainebleau,fontainebleau,,5,998,998,,48.4097,2.7025,998,Fontainebleau
ferrara,ferrara,,5,999,999,,44.83333333,11.61666667,999,Ferrara
fayetteville,fayetteville,,5,1000,1000,,35.0525,-78.87805556,1000,Fayetteville
exchange,exchange,,5,1001,1001,,51.51361111,-0.087222222,1001,Exchange
epworth,epworth,,5,1002,1002,,53.5167,-0.8167,1002,Epworth
englishneighbourhood,english neighbourhood,,5,1003,1003,,40.86,-74,1003,English Neighbourhood
englefield,englefield,,5,1004,1004,,51.443,-1.1,1004,Englefield
engedi,en-gedi|engedi,,5,1005,1005,biblical place,NA,NA,1005,En-Gedi
eastflorida,east-florida|east florida,,5,1007,1007,,28.21447222,-81.58541667,1007,East-Florida
dorsetshire,dorset shire|dorsetshire,,5,1008,1008,,50.8,-2.3,1008,Dorsetshire
dettingen,dettingen,,5,1009,1009,,50.04888889,9.018333333,1009,Dettingen
deira,deira,,5,1010,1010,,53.96166667,-1.080555556,1010,Deira
cyrnus,cyrnus,,5,1011,1011,,32.825,21.85805556,1011,Cyrnus
cumberlandriver,cumberland river,,5,1012,1012,,37.14333333,-88.4075,1012,Cumberland River
croatia,croatia,,5,1013,1013,,45.16666667,15.5,1013,Croatia
cowe,cowe,,5,1014,1014,"cowee, in north carolina",35.265,-83.4175,1014,Cowe
condee,condee,,5,1015,1015,not a place! Prince of Condé,NA,NA,1015,Condee
colen|collen|cologn|cologne,colen|collen|cologn|cologne,,15,1224|1593|1592|1016,1016,|||,50.93638889,6.952777778,1224|1593|1592|1016,Colen
colchester,colchester,,5,1017,1017,,51.8917,0.903,1017,Colchester
clutha|clyde,clutha|clyde,,9,1018|1225,1018,|,55.67952778,-4.971305556,1018|1225,Clutha
clare,clare,,5,1019,1019,"One of these is actually Clare College at Cambridge: Francis, Misc. Poems/Disambiguate?",52.83333333,-9,1019,Clare
britishchannel|channel,british channel|channel,,7,2446|1021,1021,|,50,-2,2446|1021,British Channel
chalons,chalons,,5,1022,1022,,48.9575,4.365,1022,Chalons
calvary,calvary,,5,1024,1024,Biblical place,NA,NA,1024,Calvary
buxton,buxton,,5,1025,1025,,53.259,-1.911,1025,Buxton
bretagne,bretagne,,5,1028,1028,,48,-3,1028,Bretagne
brest,brest,,5,1029,1029,,48.38333333,-4.483333333,1029,Brest
baard|brassas|bressa|bressasound,baard|brassa's|bressa|bressa sound,,15,2504|1635|1031|1030,1030,headland on Bressa in shetland Islands|Island of Bressay in the Shetlands|Island of Bressay in the Shetlands|off Bressay in the Shetlands,60.15,-1.083333333,2504|1635|1031|1030,Baard
bombay,bombay,,5,1032,1032,,18.975,72.82583333,1032,Bombay
beziers,beziers,,5,1033,1033,,43.3475,3.218888889,1033,Beziers
besancon,besancon,,5,1035,1035,,47.24305556,6.021944444,1035,Besancon
beaucaire,beaucaire,,5,1036,1036,,43.80805556,4.644166667,1036,Beaucaire
bastile|bastille,bastile|bastille,,9,1037|1249,1037,"Bastille prison in Paris, France|Bastille prison in Paris, France",48.853333,2.369167,1037|1249,Bastile
bahamas,bahamas|baha mas,,5,1039,1039,,24.25,-76,1039,Bahamas
auvergne,auvergne,,5,1041,1041,region of France,45.33333333,3,1041,Auvergne
athos,athos,,5,1042,1042,Mount Athos,40.15722222,24.32638889,1042,Athos
arctic,arctic,,5,1044,1044,,90,-135,1044,Arctic
amboise,amboise,,5,1046,1046,City in France,47.40416667,0.98,1046,Amboise
zainesvilleohio,"zainesville, ohio,",,4,1049,1049,,39.94611111,-82.01222222,1049,"Zainesville, Ohio,"
zainesville,zainesville,,4,1050,1050,,39.94611111,-82.01222222,1050,Zainesville
wilmington,wilming ton|wilmington,,3,1053,1053,Wilmington in North Carolina,34.22333333,-77.91222222,1053,Wilmington
west,west,,4,1054,1054,too vague,NA,NA,1054,West
weathersfield,weathersfield,,4,1055,1055,,41.71416667,-72.6525,1055,Weathersfield
warrington,warrington,,3,1056,1056,Moved 1 to 8005,53.39166667,-2.597222222,1056,Warrington
warren,warren,,4,1057,1057,,41.73027778,-71.2825,1057,Warren
walthamabbey,waltham abbey,,4,1058,1058,,51.6875,-0.0035,1058,Waltham Abbey
wallstreet,wall- street,,4,1059,1059,,40.708,-74.011,1059,Wall- Street
vernon,vernon,,4,1060,1060,,38.73527778,-77.09527778,1060,Vernon
uz,uz,,4,1061,1061,biblical place,NA,NA,1061,Uz
tyrconnel,tyrconnel,,4,1063,1063,,54.917,-8,1063,Tyrconnel
topsyturvyisland,topsy-turvy island,,4,1065,1065,fictional place,NA,NA,1065,Topsy-Turvy Island
tipperary,tip perary|tipperary,,4,1066,1066,,52.474,-8.162,1066,Tipperary
tawnytown,tawnytown,,4,1068,1068,,39.65722222,-77.17055556,1068,Tawnytown
tarshish,tarshish,,4,1069,1069,biblical place,NA,NA,1069,Tarshish
stoneypoint,stoney-point,,4,1070,1070,,41.241,-73.974,1070,Stoney-Point
stockholm,stockholm,,4,1071,1071,,59.32944444,18.06861111,1071,Stockholm
stiria,stiria,,4,1072,1072,,47.25,15.16666667,1072,Stiria
stdennis,st. dennis,,4,1073,1073,,48.9356,2.3539,1073,St. Dennis
stathorne,stathorne,,4,1074,1074,,52.85,-0.85,1074,Stathorne
stann,st. ann,,4,1075,1075,,18.2,-77.467,1075,St. Ann
stalbans,st. albans|st. alban's,,4,1076,1076,,51.755,-0.336,1076,St. Albans
spanishtown,spanish town,,4,1077,1077,,17.99587778,-76.95510833,1077,Spanish Town
south,south,,4,1078,1078,too vague,NA,NA,1078,South
shenir,shenir,,4,1081,1081,biblical place,NA,NA,1081,Shenir
sheen,sheen,,4,1082,1082,,51.464,-0.266,1082,Sheen
sharon,sharon,,4,1083,1083,biblical place,NA,NA,1083,Sharon
senegal,senegal,,4,1085,1085,,14.66666667,-17.41666667,1085,Senegal
sego,sego,,4,1086,1086,,13.45,-6.266666667,1086,Sego
seezen,seezen,,4,1087,1087,unable to identify,NA,NA,1087,Seezen
sciota,sciota,,4,1088,1088,,38.73063056,-83.012675,1088,Sciota
scarboroughcastle,scarboroughcastle|scarborough-castle,,4,1089,1089,,54.287,-0.388,1089,Scarboroughcastle
saone,saone,,4,1091,1091,,45.7275,4.817777778,1091,Saone
sanjacinto,san jacinto,,4,1092,1092,,29.54694444,-94.94805556,1092,San Jacinto
sanfelipedeaustin,san felipe de austin,,4,1093,1093,,29.79444444,-96.10472222,1093,San Felipe De Austin
saltbranch,salt branch,,4,1094,1094,,28.34738889,-97.68919444,1094,Salt Branch
salisburyplain,salisbury plain|salisbury-plain,,4,1095,1095,,51.155,-1.809,1095,Salisbury Plain
saintmaura,saint maura,,4,1096,1096,unable to identify,NA,NA,1096,Saint Maura
saintes,saintes,,4,1097,1097,,45.7464,-0.6333,1097,Saintes
rockymountains,rocky mountains,,4,1098,1098,,43.74120833,-110.8024139,1098,Rocky Mountains
queens,queens,,4,1099,1099,,40.75,-73.86666667,1099,Queens
pundebita,pundebita,,4,1100,1100,unable to identify,NA,NA,1100,Pundebita
pueblonuevo,pueblo nuevo,,4,1101,1101,,23.05111111,-81.57527778,1101,Pueblo Nuevo
potosi,potosi,,4,1103,1103,,-19.58333333,-65.75,1103,Potosi
po,po,,4,1104,1104,,44.9525,12.43194444,1104,Po
placevendome,place vendome,,4,1105,1105,,48.8675,2.329444444,1105,Place Vendome
pistoia,pistoia,,4,1106,1106,,43.93333333,10.91666667,1106,Pistoia
pierias,pieria's,,4,1107,1107,mythical place,NA,NA,1107,Pieria
picusadami,picus adami,,4,1108,1108,,6.811388889,80.49972222,1108,Picus Adami
picardy,picardy,,4,1109,1109,,49.5,2.833333333,1109,Picardy
phrigia|phrygia,phrigia|phri gia|phrygia,,6,1967|1110,1110,|,39,31,1967|1110,Phrigia
pembrokeshire,pembrokeshire|pembroke-shire,,4,1111,1111,,51.845,-4.842222222,1111,Pembrokeshire
peekskill,peek's-kill|peekskill,,4,1112,1112,,41.28333333,-73.91666667,1112,Peek'S-Kill
pau,pau,,4,1113,1113,,43.3,-0.37,1113,Pau
parma,parma,,4,1114,1114,,44.8,10.33333333,1114,Parma
paphos,paphos,,4,1115,1115,,34.76666667,32.41666667,1115,Paphos
otaheite,otaheite,,4,1116,1116,,-17.66666667,-149.4166667,1116,Otaheite
orgon,orgon,,4,1117,1117,,43.7914,5.0389,1117,Orgon
orcades,orcades,,4,1118,1118,,59,-3.033333333,1118,Orcades
olymp,olymp,,4,1119,1119,mythical place,NA,NA,1119,Olymp
olimpus,olimpus,,4,1120,1120,mythical place,NA,NA,1120,Olimpus
northernpole|northpole,northern pole|north pole,,6,2017|1121,1121,|,90,0,2017|1121,Northern Pole
norridgwog,norridgwog,,4,1122,1122,,44.767,-69.8833,1122,Norridgwog
nisa,nisa,,4,1123,1123,unable to identify,NA,NA,1123,Nisa
niniveh,niniveh,,4,1124,1124,biblical place,NA,NA,1124,Niniveh
newplymouth,new-plymouth,,4,1125,1125,,41.845,-70.7387,1125,New Plymouth
newmarket,newmarket|new-market,,4,1126,1126,,52.2459,0.4105,1126,Newmarket
newlondon,new-london,,4,1127,1127,,41.35555556,-72.09944444,1127,New London
newjerusalem,new jerusalem,,4,1128,1128,biblical place,NA,NA,1128,New Jerusalem
newburyport,newbury-port|newburyport,,4,1130,1130,,42.8125,-70.87777778,1130,Newbury-Port
nauticus,nauticus,,4,1131,1131,,NA,NA,1131,Nauticus
narzada,narzada,,4,1132,1132,fictional place,NA,NA,1132,Narzada
mytelin,mytelin,,4,1133,1133,,39.1,26.55,1133,Mytelin
mutina,mutina,,4,1134,1134,,44.64694444,10.92555556,1134,Mutina
muscovy,muscovy,,4,1135,1135,,55.75,37.61666667,1135,Muscovy
muscleshoals,muscle shoals,,4,1136,1136,,34.75083333,-87.65027778,1136,Muscle Shoals
mountjura,mount jura,,4,1137,1137,,46.66666667,6.25,1137,Mount Jura
mounthopebay,mount hope bay,,4,1138,1138,,41.67388889,-71.24,1138,Mount Hope Bay
mountcalvary,mount calvary,,4,1139,1139,biblical place,NA,NA,1139,Mount Calvary
moscows,moscow's,,4,1140,1140,,55.75,37.61666667,1140,Moscow
moonworld,moon world,,4,1141,1141,Fictional place,NA,NA,1141,Moon World
montross,montross,,4,1142,1142,,56.708,-2.467,1142,Montross
modena,modena,,4,1144,1144,,44.64694444,10.92555556,1144,Modena
mistick|mystic,mistick|mystic,,6,1145|2035,1145,|,41.35416667,-71.96638889,1145|2035,Mistick
mississippiriver,mississippi river,,4,1146,1146,,33.40255556,-90.86902778,1146,Mississippi River
messinas,messina's,,4,1147,1147,,38.18333333,15.55,1147,Messina
mersey,mersey,,4,1148,1148,,53.45,-3.033,1148,Mersey
memphis,memphis,,4,1149,1149,,29.84472222,31.25083333,1149,Memphis
medway,medway,,4,1150,1150,,51.44916667,0.738333333,1150,Medway
medina,medina,,4,1151,1151,,24.46666667,39.6,1151,Medina
martinico,martinico,,4,1152,1152,,14.66666667,-61,1152,Martinico
mars,mars,,4,1153,1153,not a place,NA,NA,1153,Mars
marathon,marathon,,4,1154,1154,,38.15,23.95,1154,Marathon
lunel,lunel,,4,1155,1155,,43.6778,4.1361,1155,Lunel
liancourt,liancourt,,4,1160,1160,title,49.3317,2.4661,1160,Liancourt
levant,levant,,4,1161,1161,,31.6253,35.1453,1161,Levant
leon,leon,,4,1162,1162,,42.60555556,-5.57,1162,Leon
lamia,lamia,,4,1163,1163,,38.9,22.43333333,1163,Lamia
labrador,labra dor|labrador,,4,1165,1165,,53.1355,57.6604,1165,Labrador
kingscollege,kings-college,,4,1166,1166,,52.20416667,0.116666667,1166,Kings-College
kensingtongardens,kensington gardens,,4,1167,1167,,51.50722222,-0.180277778,1167,Kensington Gardens
kennebec,kenne bec,,4,1168,1168,,44.767,-69.8833,1168,Kennebec
kaxton,kaxton,,4,1169,1169,,52.20843056,-0.0945,1169,Kaxton
jericho,jericho,,4,1170,1170,,31.87111111,35.44416667,1170,Jericho
huzbib,huzbib,,4,1172,1172,fictional place,NA,NA,1172,Huzbib
hessommoor,hessom-moor,,4,1174,1174,,53.9637,-1.2619,1174,Hessom-Moor
hermons,hermon's,,4,1175,1175,Biblical place,NA,NA,1175,Hermon
haverstraw,haver straw,,4,1176,1176,,41.19638889,-73.96694444,1176,Haverstraw
harwich,harwich,,4,1177,1177,,51.94458056,1.289852778,1177,Harwich
harleystreet,harley-street|harley-street.,,4,1178,1178,,51.5206,-0.1477,1178,Harley-Street
hammersmith,hammersmith,,4,1179,1179,,51.4928,-0.2229,1179,Hammersmith
gurnetsnose,gurnet's nose,,4,1180,1180,,42.00517222,-70.59951667,1180,Gurnet's Nose
guernsey,guernsey,,4,1181,1181,,49.45,-2.58,1181,Guernsey
guadalquivers,guadalquiver's,,4,1182,1182,,36.78333333,-6.35,1182,Guadalquiver
groton,groton,,4,1183,1183,,41.3485,-72.0775,1183,Groton
grafton,grafton,,4,1185,1185,,52.37345,0.786761111,1185,Grafton
goshen,goshen,,4,1186,1186,biblical place,NA,NA,1186,Goshen
gomor,gomor,,4,1187,1187,biblical place,NA,NA,1187,Gomor
glenowen,glenowen,,4,1188,1188,Ireland?,NA,NA,1188,Glenowen
glasgow,glasgow,,4,1189,1189,,55.86091667,-4.251433333,1189,Glasgow
gatehouse,gate-house|gatehouse,,4,1192,1192,unable to identify,NA,NA,1192,Gate-House
gardon,gardon,,4,1193,1193,,43.85166667,4.615,1193,Gardon
gardenofeden,garden of eden,,4,1194,1194,biblical place,NA,NA,1194,Garden Of Eden
flushing,flushing,,2,1195,1195,"new york: unknown, changing scenes",40.765,-73.805,1195,Flushing
fayoul,fayoul,,4,1196,1196,fictional place,NA,NA,1196,Fayoul
faro,faro,,4,1197,1197,,37.03333333,-7.916666667,1197,Faro
epsom,epsom|epsom;,,4,1199,1199,,51.336,-0.267,1199,Epsom
elysianfields,elysian fields,,4,1200,1200,mythical place,NA,NA,1200,Elysian Fields
elizabethtown,elizabethtown,,4,1201,1201,,40.66626111,-74.19353056,1201,Elizabethtown
elam,elam,,4,1202,1202,Biblical place,NA,NA,1202,Elam
ecbatane,ecbatane,,4,1203,1203,,34.80638889,48.51611111,1203,Ecbatane
eaststreet,east street,,4,1204,1204,,51.48944444,-0.088888889,1204,East Street
duvranno,duvranno,,4,1205,1205,River. Unable to identify.,NA,NA,1205,Duvranno
downs,downs,,3,1206,1206,"1 moved to south downs, from charlotte smith, sonnets. 3 were downs off kent (north and south), from Carleton, case of mary carleton, and kilham, memoirs.",51.1856,1.4897,1206,Downs
dowills,dowill's,,4,1207,1207,stream. Unable to identify,NA,NA,1207,Dowill
doctorscommons,doctors commons|doctors' commons,,4,1208,1208,,51.5122,-0.1002,1208,Doctors Commons
districtofmaine,district of maine,,4,1209,1209,,45.5,-69,1209,District Of Maine
deerfield,deerfield,,4,1211,1211,,42.54444444,-72.60611111,1211,Deerfield
dawlish,dawlish,,4,1212,1212,,50.581,-3.466,1212,Dawlish
dartmouth,dartmouth,,4,1213,1213,,43.70333333,-72.28833333,1213,Dartmouth
danville,danville,,4,1214,1214,,37.64555556,-84.76972222,1214,Danville
danube,danube,,4,1215,1215,,45.2175,29.76138889,1215,Danube
cyrene,cyrene,,4,1216,1216,,32.825,21.85805556,1216,Cyrene
cydnus,cydnus,,4,1217,1217,,36.47,34.5,1217,Cydnus
cressy,cressy,,4,1218,1218,,50.257,1.904,1218,Cressy
copshill,cop's-hill,,4,1219,1219,,42.36722222,-71.05638889,1219,Cop's-Hill
cookeham,cooke-ham,,4,1220,1220,,51.558,-0.708,1220,Cooke-Ham
constance,constance,,4,1221,1221,,47.66333333,9.176944444,1221,Constance
conde,conde,,4,1222,1222,not a place! Prince of Condé,NA,NA,1222,Conde
colombia,co lombia,,4,1223,1223,,4.583333333,-74.06666667,1223,Colombia
cheshire,cheshire,,4,1226,1226,,53.16666667,-2.583333333,1226,Cheshire
chateaudhauteville,chateau d'hauteville,,4,1228,1228,"In Auvergne, apparently",45.33333333,3,1228,Chateau D'Hauteville
chantilly,chantilly,,4,1229,1229,,49.2,2.466666667,1229,Chantilly
champagne|champaigne,champagne|champaigne,,6,1230|2389,1230,|,49,4,1230|2389,Champagne
castlegarden,castle garden,,4,1232,1232,In New York City,40.7035,-74.0168,1232,Castle Garden
caspian,caspian,,4,1233,1233,,41.66666667,50.66666667,1233,Caspian
casco,casco,,4,1234,1234,bay in Maine,43.63333333,-70.04944444,1234,Casco
carthagena,carthagena,,3,1235,1235,"Cartagena, Colombia",10.4,-75.5,1235,Carthagena
carpentras,carpentras,,4,1236,1236,,44.05583333,5.048888889,1236,Carpentras
carlile|carlisle,carlile|carlisle,,7,1608|1237,1237,|,54.891,-2.944,1608|1237,Carlile
canaries|canaryislands,canaries|canary islands,,6,2423|1238,1238,|,28.1,-15.4,2423|1238,Canaries
cam|cams,cam|cam's,,6,1239|2424,1239,|,52.3483,0.2525,1239|2424,Cam
bridgewater|bridgwater,bridgewater|bridgwater,,7,1241|1633,1241,via Earl or Duke of Bridgewater|via Earl or Duke of Bridgewater,51.128,-2.993,1241|1633,Bridgewater
boyne,boyne,,4,1243,1243,battle of the Boyne in Ireland,53.723,-6.417,1243,Boyne
bolsover,bolsover,,4,1244,1244,Bolsover Castle,53.23138889,-1.296944444,1244,Bolsover
bloreheath,blore heath,,4,1245,1245,Battle of Blore Heath,52.91361111,-2.424722222,1245,Blore Heath
bither,bither,,4,1246,1246,city near Jerusalem?,31.78333333,35.21666667,1246,Bither
beverly,beverly,,4,1247,1247,,42.558,-70.88,1247,Beverly
bether,bether,,4,1248,1248,,NA,NA,1248,Bether
bantam,bantam,,4,1250,1250,,-6.0425,106.1608333,1250,Bantam
baalhamon,baal-hamon|baal hamon,,4,1251,1251,Biblical place,NA,NA,1251,Baal-Hamon
ascalon|ashkelon|askelon,ascalon|ashkelon|askelon,,10,1254|2514|1253,1254,"Biblical city, now Ashkelon||Biblical city, now Ashkelon",NA,NA,1254|2514|1253,Ascalon
arno|arnos,arno|arno's,,6,1255|2520,1255,Arno River in Italy|Arno River in Italy,43.68333333,10.28333333,1255|2520,Arno
argos,argos,,4,1256,1256,,37.61666667,22.71666667,1256,Argos
arbela,arbela,,4,1257,1257,now Arbil in Iraq,36.19111111,44.00916667,1257,Arbela
apulia|apulias,apulia|apulia's,,6,1259|2528,1259,Region of Italy|Region of Italy,41.00861111,16.51277778,1259|2528,Apulia
apennines|appenines,apennines|appenines,,7,1681|1260,1260,|Apennines,43.28166667,12.58166667,1681|1260,Apennines
antonia,antonia,,4,1261,1261,Biblical Fortress Antonia,NA,NA,1261,Antonia
angola,angola,,4,1263,1263,Angola,-12.5,18.5,1263,Angola
angers|angiers,angers|angiers,,7,1684|1264,1264,"|Angers, city in France",47.47361111,-0.554166667,1684|1264,Angers
amana,amana,,4,1265,1265,Biblical Mount Amana from Song of Songs,NA,NA,1265,Amana
agra,agra,,4,1266,1266,"city in Uttar Pradesh, India",27.18,78.02,1266,Agra
adriatic,adriatic,,4,1267,1267,,43,15,1267,Adriatic
ackworth,ackworth,,4,1268,1268,"Town in West Yorkshire, England",53.640824,-1.336409,1268,Ackworth
zutphen|zutphon,zutphen|zutphon,,6,1270|1269,1269,|,52.13333333,6.2,1270|1269,Zutphen
zayat,zayat,,3,1272,1272,Burmese building in every village,NA,NA,1272,Zayat
yorkcastle,york castle,,3,1274,1274,,53.9558,-1.08,1274,York Castle
wynchester|wynchestre,wynchester|wynchestre,,5,1715|1275,1275,|,51.0632,-1.308,1715|1275,Wynchester
woodstock,woodstock,,3,1276,1276,,52.47591944,-7.059030556,1276,Woodstock
wirtenberg,wirtenberg,,3,1277,1277,,48.53777778,9.041111111,1277,Wirtenberg
windsorcastle,windsor-castle,,3,1278,1278,,51.48333333,-0.604166667,1278,Windsor-Castle
wilton,wilton,,3,1279,1279,,51.08,-1.864,1279,Wilton
whitechapel,whitecha pel|white-chapel|whitechapel,,3,1280,1280,,51.5165,-0.075,1280,Whitechapel
westvirginia,west virginia,,3,1281,1281,,39,-80.5,1281,West Virginia
westend,west end|west-end,,3,1282,1282,,51.51333333,-0.128611111,1282,West End
westafrica,west africa,,3,1283,1283,,12,3,1283,West Africa
weehawk,weehawk,,3,1285,1285,,40.76890278,-74.01542778,1285,Weehawk
waltham,waltham,,3,1286,1286,,51.6846,4.00E-04,1286,Waltham
wallingford,wallingford,,3,1287,1287,,51.599,-1.125,1287,Wallingford
verona,verona,,3,1288,1288,,45.43333333,10.98333333,1288,Verona
vatican,vatican,,3,1291,1291,,41.90333333,12.45333333,1291,Vatican
valencia,valencia,,3,1292,1292,,39.46666667,-0.375,1292,Valencia
valence,valence,,3,1293,1293,,44.9333,4.8917,1293,Valence
unitedprovinces,united provinces,,3,1294,1294,,52.08333333,4.3,1294,United Provinces
ullins,ullin's,,3,1295,1295,"Not a place? A mythical hero?Anne Gittins Francis writes ""in Ullin's mossy shades"" but minutes searching comes up with ""Ullin was established as a site [in Illinois]...Some sources suggest it was named for a Gaelic folk hero who frequently appears in the works of the poet Ossian.""",NA,NA,1295,Ullin
turin,turin,,3,1296,1296,,45.0667,7.7,1296,Turin
troie,troie,,3,1297,1297,"This is the French spelling (Sidney, Mary, Countess of Pembroke)",39.9575,26.23888889,1297,Troie
treves,treves,,3,1298,1298,,49.75,6.633333333,1298,Treves
treharnehall,treharne hall,,3,1299,1299,??,NA,NA,1299,Treharne Hall
towncreek,town creek,,3,1300,1300,,34.67151944,-87.40831111,1300,Town Creek
toweroflondon,tower of london,,3,1301,1301,,51.50805556,-0.076111111,1301,Tower Of London
tolzag,tolzag,,3,1302,1302,fictional place,NA,NA,1302,Tolzag
thyatira,thya tira|thyatira,,3,1303,1303,,38.92083333,27.84166667,1303,Thyatira
thules,thule's,,3,1304,1304,"ancient place, location not determined",NA,NA,1304,Thule
thomond,thomond,,3,1305,1305,,52.83333333,-9,1305,Thomond
thibet,thibet,,3,1306,1306,,31.2,88.8,1306,Thibet
terraincognita,terra incognita,,3,1308,1308,not a place; name for regions that have not been mapped or documented,NA,NA,1308,Terra Incognita
tempe,tempe,,3,1309,1309,unable to identify,NA,NA,1309,Tempe
tecumseh,tecumseh,,3,1310,1310,unable to identify,NA,NA,1310,Tecumseh
tarbes,tarbes,,3,1311,1311,,43.23,0.07,1311,Tarbes
syon,syon,,3,1312,1312,biblical place,NA,NA,1312,Syon
sussexcounty,sussex county,,3,1313,1313,,51,0,1313,Sussex County
sun,sun,,3,1314,1314,not a place,NA,NA,1314,Sun
straitsofgades,straits of gades,,3,1315,1315,,36,-5.35,1315,Straits Of Gades
stlucia,st lucia|st. lucia,,3,1316,1316,,13.88333333,-60.96666667,1316,St Lucia
stirling,stirling,,3,1317,1317,,56.1172,-3.9397,1317,Stirling
stgermainsgarden,st. germains garden|st. germains-garden,,3,1318,1318,unable to identify,NA,NA,1318,St. Germains Garden
steloy,st. eloy,,3,1319,1319,,48.3622,-4.1211,1319,St. Eloy
states,states,,3,1320,1320,too vague,NA,NA,1320,States
standrews,st. andrews,,3,1321,1321,,18.01666667,-76.9,1321,St. Andrews
squirespoint,'squires' point,,3,1322,1322,,41.14,-74.69,1322,Squires' Point
sproughton,sproughton,,3,1323,1323,,52.06241111,1.095272222,1323,Sproughton
springgarden,spring-garden,,3,1324,1324,,51.5065,-0.1279,1324,Spring-Garden
spitalfields,spitalfields,,3,1325,1325,,51.5166,-0.075,1325,Spitalfields
spanishcolonies,spanish colonies,,3,1326,1326,too vague,NA,NA,1326,Spanish Colonies
southseaislands,south sea islands,,3,1327,1327,,-17.53333333,-149.8333333,1327,South Sea Islands
southhampton,south-hampton|southhamp ton,,3,1328,1328,,50.9,-1.4,1328,South-Hampton
sorgue,sorgue,,3,1329,1329,,43.96666667,5,1329,Sorgue
sora,sora,,3,1330,1330,,32.53638889,44.42083333,1330,Sora
somersethouse,somerset- house,,3,1331,1331,,51.51102778,-0.117194444,1331,Somerset- House
snowhill,snow hill,,3,1332,1332,,39.95277778,-75.16361111,1332,Snow Hill
sinais,sinai's,,3,1335,1335,biblical place,NA,NA,1335,Sinai
sidon,sidon,,3,1336,1336,,33.56055556,35.39805556,1336,Sidon
siberias,siberia's,,3,1339,1339,,60,105,1339,Siberia
shoreham,shoreham,,3,1340,1340,,50.834,-0.273,1340,Shoreham
seymourstreet,seymour street,,3,1341,1341,,51.51438889,-0.158833333,1341,Seymour Street
senatehouse,senate house,,3,1342,1342,not a place,NA,NA,1342,Senate House
selkirk,selkirk,,3,1343,1343,,55.55,-2.840019444,1343,Selkirk
saumur,saumur,,3,1344,1344,,47.26,-0.0769,1344,Saumur
saugerchies,saugerchies,,3,1345,1345,,42.07796667,-73.95051944,1345,Saugerchies
sanpaolos,san paolo's,,3,1346,1346,,37.39626944,-5.985583333,1346,San Paolo
sanantonioriver,san antonio river,,3,1347,1347,,28.50722222,-96.89111111,1347,San Antonio River
sanantonio,san antonio,,3,1348,1348,,29.41666667,-98.5,1348,San Antonio
salon,salon,,3,1349,1349,,43.6406,5.0972,1349,Salon
salces,salces,,3,1350,1350,,44.535,3.1625,1350,Salces
salamanca,salamanca,,3,1351,1351,,40.96161111,-5.667605556,1351,Salamanca
saintcloud,saint cloud,,3,1352,1352,,48.84,2.22,1352,Saint Cloud
sabineriver,sabine river,,3,1353,1353,,29.98555556,-93.79055556,1353,Sabine River
ruedartois,rue d'artois,,3,1354,1354,,48.87289722,2.307822222,1354,Rue D'Artois
rotheram,rotheram,,3,1355,1355,,53.43,-1.357,1355,Rotheram
rosas,rosa's,,3,1356,1356,title not a place,NA,NA,1356,Rosa
riverthames,river thames,,3,1357,1357,,51.4989,0.6087,1357,River Thames
riojaneiro,rio janeiro,,3,1358,1358,,-22.90833333,-43.19638889,1358,Rio Janeiro
regent,regent,,3,1359,1359,sierra leone,8.434166667,-13.22305556,1359,Regent
redfishbar,red fish bar,,3,1360,1360,,29.50561111,-94.86577778,1360,Red Fish Bar
raylandpark,ray land park,,3,1361,1361,unable to identify,NA,NA,1361,Rayland Park
raritan,raritan,,3,1362,1362,,40.50399167,-74.34941111,1362,Raritan
quinnipiak,quin nipiak,,3,1363,1363,,41.31,-72.92361111,1363,Quinnipiak
ptolemais,ptolemais,,3,1364,1364,,32.7,20.95,1364,Ptolemais
prospecthill,prospect hill,,3,1365,1365,,42.3797,-71.0964,1365,Prospect Hill
prome,prome,,3,1366,1366,,18.81666667,95.21666667,1366,Prome
potosis,potosi's,,3,1367,1367,,-19.58333333,-65.75,1367,Potosi
pompey,pompey,,3,1368,1368,,40.75,14.48611111,1368,Pompey
poictiers,poictiers,,3,1369,1369,,46.58,0.34,1369,Poictiers
podolia,podolia,,3,1370,1370,,48.93,28.69,1370,Podolia
pocasset,pocasset,,3,1371,1371,,41.69083333,-70.61666667,1371,Pocasset
placelouisquinze,place louis quinze,,3,1372,1372,,48.86555556,2.321111111,1372,Place Louis Quinze
placeducarousel,place du carousel,,3,1373,1373,,48.86194444,2.332777778,1373,Place Du Carousel
pisidia,pisidia,,3,1374,1374,,37.3,30.3,1374,Pisidia
pieria,pieria,,3,1375,1375,mythical place,NA,NA,1375,Pieria
piccadilly,piccadilly,,3,1376,1376,,51.50698056,-0.14235,1376,Piccadilly
persiangulf,persian gulf,,3,1377,1377,,26,52,1377,Persian Gulf
persepolis,persepolis,,3,1378,1378,,29.93444444,52.89138889,1378,Persepolis
pergamus,pergamus|perga mus,,3,1379,1379,,39.1325,27.18416667,1379,Pergamus
pennsdale,pennsdale,,3,1380,1380,,41.24305556,-76.79666667,1380,Pennsdale
pelusium,pelusium,,3,1381,1381,,31.04166667,32.545,1381,Pelusium
peloponesus,peloponesus,,3,1382,1382,,37.34972222,22.35222222,1382,Peloponesus
peking,peking,,3,1383,1383,,39.91666667,116.3833333,1383,Peking
pawtucket,pawtucket,,3,1384,1384,,41.87555556,-71.37611111,1384,Pawtucket
pauls,pauls,,3,1385,1385,unable to identify,NA,NA,1385,Pauls
patuxet,pa tuxet,,3,1386,1386,,41.76666667,-71.45,1386,Patuxet
patmos,pat mos|patmos,,3,1387,1387,,37.325,26.54166667,1387,Patmos
parth,parth,,3,1388,1388,historical empire,NA,NA,1388,Parth
parliamenthouse,parliament-house,,3,1389,1389,,51.49916667,-0.124722222,1389,Parliament-House
paraclet,paraclet,,3,1390,1390,unable to identify,NA,NA,1390,Paraclet
paphlagonia,paphlagonia,,3,1391,1391,,41.5,33.5,1391,Paphlagonia
pantiles,pantiles,,3,1392,1392,,51.12615,0.257791667,1392,Pantiles
pactolus,pactolus,,3,1393,1393,,38.52326944,28.04277222,1393,Pactolus
pacific|pacificocean,pacific|pacific ocean,,5,1394|1995,1394,|,0,-160,1394|1995,Pacific
oystercreek,oyster creek,,3,1395,1395,,28.99861111,-95.325,1395,Oyster Creek
oxfordshire,oxfordshire,,3,1396,1396,,51.75,-1.28,1396,Oxfordshire
oroolong,oroolong,,3,1398,1398,,7.187302778,134.3680083,1398,Oroolong
orkneys,orkney's,,3,1399,1399,,59,-3.033333333,1399,Orkney
oldbailey,old-bailey|old bailey,,3,1400,1400,,51.51569167,-0.101919444,1400,Old-Bailey
ohioriver,ohio river,,3,1401,1401,,36.98666667,-89.13055556,1401,Ohio River
oakmulge,oakmulge,,3,1402,1402,,33.32083333,-83.84416667,1402,Oakmulge
oakleygrove,oakley- grove,,3,1403,1403,unable to identify,NA,NA,1403,Oakley- Grove
northamericanrepublic,north american republic,,3,1404,1404,too vague,NA,NA,1404,North American Republic
ninevah,ninevah,,3,1405,1405,biblical place,NA,NA,1405,Ninevah
niger,niger,,3,1406,1406,,16,8,1406,Niger
newmexico,new mexico,,3,1407,1407,,34,-106,1407,New Mexico
newlodge,new-lodge,,3,1408,1408,,51.43916667,-0.624722222,1408,New Lodge
